     2.11           OBSERVATION DATA    M                   RINEX VERSION / TYPE
DPM-RINEX 1.0       SAPCORDA            17-MAR-20 06:21     PGM / RUN BY / DATE
SLIB_                                                       MARKER NAME
65535                                                       MARKER NUMBER
SAPCORDA            SAPCORDA                                OBSERVER / AGENCY
                                                            REC # / TYPE / VERS
                                                            ANT # / TYPE
 -2705297.4080 -4283455.6310  3861823.9550                  APPROX POSITION XYZ
        0.0000        0.0000        0.0000                  ANTENNA: DELTA H/E/N
     1     1                                                WAVELENGTH FACT L1/2
     8    C1    L1    P1    C2    L2    P2    S1    S2      # / TYPES OF OBSERV
     1                                                      INTERVAL
  2020     3    17     6    21   30.0000000     GPS         TIME OF FIRST OBS
    18                                                      LEAP SECONDS
                                                            END OF HEADER
 20  3 17  6 21 30.0000000  0  7G13G15G16G20G21G25G29
  23308759.167   122488348.411 0                                  95445475.687 0
  23308758.892                                  
  21885533.329   115009240.082 0                  21885533.466    89617588.945 0
  21885533.406                                  
  23252264.761   122191485.302 0                                  95214125.765 0
  23252264.389                                  
  21019418.459   110457794.244 0                                  86070989.404 0
  21019418.209                                  
  21298430.457   111923991.395 0                                  87213502.337 0
  21298429.337                                  
  25245912.637   132668140.195 0                  25245916.301   103377745.277 0
  25245916.121                                  
  20979456.604   110247808.981 0                  20979456.737    85907367.803 0
  20979456.697                                  

 20  3 17  6 21 35.0000000  0  7G13G15G16G20G21G25G29
  23308646.566   122487756.692 0                                  95445014.607 0
  23308646.292                                  
  21884435.305   115003469.930 0                  21884435.442    89613092.722 0
  21884435.382                                  
  23250968.821   122184675.094 0                                  95208819.109 0
  23250968.449                                  
  21017501.538   110447720.755 0                                  86063139.932 0
  21017501.288                                  
  21298054.209   111922014.197 0                                  87211961.664 0
  21298053.089                                  
  25249276.243   132685816.062 0                  25249279.907   103391518.680 0
  25249279.727                                  
  20981164.707   110256785.120 0                  20981164.839    85914362.197 0
  20981164.799                                  

 20  3 17  6 21 40.0000000  0  7G13G15G16G20G21G25G29
  23308536.942   122487180.612 0                                  95444565.713 0
  23308536.668                                  
  21883340.232   114997715.280 0                  21883340.369    89608608.579 0
  21883340.309                                  
  23249675.770   122177880.065 0                                  95203524.281 0
  23249675.398                                  
  21015586.617   110437657.781 0                                  86055298.653 0
  21015586.367                                  
  21297678.589   111920040.302 0                                  87210423.564 0
  21297677.469                                  
  25252639.173   132703488.381 0                  25252642.837   103405289.318 0
  25252642.657                                  
  20982875.061   110265773.093 0                  20982875.193    85921365.812 0
  20982875.153                                  

 20  3 17  6 21 45.0000000  0  7G13G15G16G20G21G25G29
  23308430.310   122486620.258 0                                  95444129.074 0
  23308430.036                                  
  21882248.124   114991976.214 0                  21882248.261    89604136.579 0
  21882248.201                                  
  23248385.627   122171100.315 0                                  95198241.359 0
  23248385.255                                  
  21013673.712   110427605.397 0                                  86047465.627 0
  21013673.462                                  
  21297303.610   111918069.771 0                                  87208888.085 0
  21297302.489                                  
  25256001.442   132721157.225 0                  25256005.107   103419057.249 0
  25256004.927                                  
  20984587.677   110274772.949 0                  20984587.809    85928378.687 0
  20984587.769                                  

 20  3 17  6 21 50.0000000  0  7G13G15G16G20G21G25G29
  23308326.682   122486075.688 0                                  95443704.733 0
  23308326.408                                  
  21881158.993   114986252.793 0                  21881159.130    89599676.771 0
  21881159.070                                  
  23247098.404   122164335.913 0                                  95192970.397 0
  23247098.032                                  
  21011762.831   110417563.650 0                                  86039640.889 0
  21011762.581                                  
  21296929.287   111916102.689 0                                  87207355.294 0
  21296928.166                                  
  25259363.056   132738822.626 0                  25259366.721   103432822.496 0
  25259366.541                                  
  20986302.565   110283784.749 0                  20986302.698    85935400.869 0
  20986302.658                                  

 20  3 17  6 21 55.0000000  0  7G13G15G16G20G21G25G29
  23308226.081   122485547.029 0                                  95443292.792 0
  23308225.807                                  
  21880072.871   114980545.184 0                  21880073.008    89595229.284 0
  21880072.948                                  
  23245814.127   122157586.991 0                                  95187711.496 0
  23245813.755                                  
  21009853.995   110407532.647 0                                  86031824.523 0
  21009853.745                                  
  21296555.649   111914139.212 0                                  87205825.312 0
  21296554.529                                  
  25262724.041   132756484.719 0                  25262727.705   103446585.166 0
  25262727.525                                  
  20988019.756   110292808.649 0                  20988019.889    85942432.479 0
  20988019.849                                  

 20  3 17  6 22  0.0000000  0 14G10G13G15G16G20G21G25G29R 5R 7R13R20
                                R21R22
  23542401.059   123716142.549 0                  23542403.971    96402166.923 0
  23542404.391                                  
  23308128.431   122485033.936 0                                  95442892.987 0
  23308128.113                                  
  21878989.681   114974853.048 0                  21878989.813    89590793.862 0
  21878989.733                                  
  23244532.734   122150853.177 0                                  95182464.367 0
  23244532.378                                  
  21007947.133   110397512.088 0                                  86024016.304 0
  21007946.879                                  
  21296182.616   111912178.902 0                                  87204297.796 0
  21296181.476                                  
  25266084.324   132774143.206 0                  25266087.944   103460345.038 0
  25266087.764                                  
  20989739.179   110301844.205 0                  20989739.316    85949473.153 0
  20989739.276                                  
  23568374.733   125986466.224 0                  23568375.195    97989472.829 0
                                                
  20472437.698   109590549.829 0                  20472438.372    85237091.003 0
                                                
  23745665.968   126800501.431 0                  23745667.219    98622601.913 0
                                                
  23651373.810   126474493.169 0                  23651377.625    98369039.030 0
                                                
  20037521.267   107224834.207 0                  20037521.364    83397093.007 0
                                                
  21043916.762   112333869.620 0                  21043916.865    87370790.712 0
                                                
 20  3 17  6 22  5.0000000  0 14G10G13G15G16G20G21G25G29R 5R 7R13R20
                                R21R22
  23539383.371   123700284.492 0                  23539386.283    96389809.995 0
  23539386.703                                  
  23308033.833   122484536.819 0                                  95442505.623 0
  23308033.515                                  
  21877909.522   114969176.774 0                  21877909.654    89586370.791 0
  21877909.574                                  
  23243254.303   122144134.980 0                                  95177229.408 0
  23243253.948                                  
  21006042.346   110387502.364 0                                  86016216.519 0
  21006042.092                                  
  21295810.285   111910222.288 0                                  87202773.162 0
  21295809.144                                  
  25269443.988   132791798.356 0                  25269447.607   103474102.298 0
  25269447.427                                  
  20991460.916   110310891.992 0                  20991461.053    85956523.377 0
  20991461.013                                  
  23572148.209   126006637.614 0                  23572148.671    98005161.689 0
                                                
  20469472.898   109574679.022 0                  20469473.572    85224747.042 0
                                                
  23745202.259   126798025.254 0                  23745203.511    98620675.998 0
                                                
  23653935.632   126488192.382 0                  23653939.447    98379693.974 0
                                                
  20037958.657   107227174.766 0                  20037958.754    83398913.442 0
                                                
  21041688.230   112321973.565 0                  21041688.333    87361538.225 0
                                                
 20  3 17  6 22 10.0000000  0 14G10G13G15G16G20G21G25G29R 5R 7R13R20
                                R21R22
  23536366.798   123684432.292 0                  23536369.710    96377457.632 0
  23536370.130                                  
  23307942.207   122484055.321 0                                  95442130.429 0
  23307941.889                                  
  21876832.320   114963516.043 0                  21876832.453    89581959.832 0
  21876832.373                                  
  23241978.774   122137432.027 0                                  95172006.328 0
  23241978.418                                  
  21004139.561   110377503.163 0                                  86008424.934 0
  21004139.307                                  
  21295438.595   111908269.047 0                                  87201251.156 0
  21295437.455                                  
  25272802.963   132809449.892 0                  25272806.583   103487856.742 0
  25272806.403                                  
  20993184.900   110319951.589 0                  20993185.037    85963582.803 0
  20993184.997                                  
  23575922.936   126026815.695 0                  23575923.398    98020855.751 0
                                                
  20466510.972   109558823.604 0                  20466511.647    85212415.050 0
                                                
  23744742.209   126795568.612 0                  23744743.461    98618765.276 0
                                                
  23656498.465   126501897.006 0                  23656502.281    98390353.126 0
                                                
  20038397.882   107229525.147 0                  20038397.979    83400741.515 0
                                                
  21039460.315   112310080.802 0                  21039460.418    87352288.298 0
                                                
 20  3 17  6 22 15.0000000  0 14G10G13G15G16G20G21G25G29R 5R 7R13R20
                                R21R22
  23533351.364   123668586.083 0                  23533354.276    96365109.937 0
  23533354.696                                  
  23307853.579   122483589.580 0                                  95441767.514 0
  23307853.261                                  
  21875758.106   114957871.011 0                  21875758.239    89577561.106 0
  21875758.159                                  
  23240706.176   122130744.483 0                                  95166795.255 0
  23240705.821                                  
  21002238.808   110367514.636 0                                  86000641.666 0
  21002238.554                                  
  21295067.550   111906319.189 0                                  87199731.786 0
  21295066.409                                  
  25276161.279   132827097.961 0                  25276164.898   103501608.483 0
  25276164.718                                  
  20994911.155   110329023.118 0                  20994911.292    85970651.527 0
  20994911.252                                  
  23579698.965   126047000.736 0                  23579699.428    98036555.228 0
                                                
  20463551.941   109542983.677 0                  20463552.615    85200095.107 0
                                                
  23744285.821   126793131.525 0                  23744287.073    98616869.764 0
                                                
  23659062.303   126515606.996 0                  23659066.119    98401016.452 0
                                                
  20038838.983   107231885.568 0                  20038839.080    83402577.398 0
                                                
  21037233.020   112298191.349 0                  21037233.123    87343040.945 0
                                                
 20  3 17  6 22 20.0000000  0 14G10G13G15G16G20G21G25G29R 5R 7R13R20
                                R21R22
  23530337.072   123652745.871 0                  23530339.984    96352766.915 0
  23530340.404                                  
  23307767.959   122483139.644 0                                  95441416.914 0
  23307767.641                                  
  21874686.878   114952241.666 0                  21874687.010    89573174.603 0
  21874686.930                                  
  23239436.504   122124072.310 0                                  95161596.159 0
  23239436.149                                  
  21000340.076   110357536.733 0                                  85992866.677 0
  21000339.822                                  
  21294697.152   111904372.735 0                                  87198215.069 0
  21294696.011                                  
  25279518.923   132844742.498 0                  25279522.542   103515357.473 0
  25279522.362                                  
  20996639.680   110338106.578 0                  20996639.817    85977729.548 0
  20996639.777                                  
  23583476.279   126067192.644 0                  23583476.742    98052260.046 0
                                                
  20460595.788   109527159.160 0                  20460596.463    85187787.150 0
                                                
  23743833.119   126790714.124 0                  23743834.371    98614989.563 0
                                                
  23661627.164   126529322.460 0                  23661630.979    98411684.035 0
                                                
  20039281.911   107234255.768 0                  20039282.008    83404420.887 0
                                                
  21035006.370   112286305.342 0                  21035006.473    87333796.273 0
                                                
 20  3 17  6 22 25.0000000  0 14G10G13G15G16G20G21G25G29R 5R 7R13R20
                                R21R22
  23527323.925   123636911.675 0                  23527326.837    96340428.580 0
  23527327.257                                  
  23307685.335   122482705.451 0                                  95441078.583 0
  23307685.017                                  
  21873618.642   114946628.048 0                  21873618.775    89568800.356 0
  21873618.695                                  
  23238169.756   122117415.504 0                                  95156409.038 0
  23238169.400                                  
  20998443.371   110347569.480 0                                  85985099.986 0
  20998443.117                                  
  21294327.397   111902429.663 0                                  87196700.987 0
  21294326.257                                  
  25282875.896   132862383.514 0                  25282879.516   103529103.719 0
  25282879.336                                  
  20998370.474   110347201.967 0                  20998370.612    85984816.864 0
  20998370.572                                  
  23587254.873   126087391.391 0                  23587255.335    98067970.182 0
                                                
  20457642.532   109511350.146 0                  20457643.206    85175491.250 0
                                                
  23743384.144   126788316.622 0                  23743385.396    98613124.839 0
                                                
  23664193.016   126543043.226 0                  23664196.832    98422355.741 0
                                                
  20039726.714   107236635.999 0                  20039726.812    83406272.178 0
                                                
  21032780.338   112274422.630 0                  21032780.441    87324554.164 0
                                                
 20  3 17  6 22 30.0000000  0 14G10G13G15G16G20G21G25G29R 5R 7R13R20
                                R21R22
  23524311.881   123621083.472 0                  23524314.815    96328094.939 0
  23524315.235                                  
  23307605.660   122482287.003 0                                  95440752.547 0
  23307605.353                                  
  21872553.361   114941030.088 0                  21872553.465    89564438.334 0
  21872553.385                                  
  23236905.893   122110773.993 0                                  95151233.844 0
  23236905.508                                  
  20996548.638   110337612.836 0                                  85977341.597 0
  20996548.396                                  
  21293958.243   111900489.917 0                                  87195189.513 0
  21293957.099                                  
  25286232.156   132880020.993 0                  25286235.736   103542847.235 0
  25286235.556                                  
  21000103.501   110356309.188 0                  21000103.638    85991913.392 0
  21000103.578                                  
  23591034.702   126107596.831 0                  23591035.166    98083685.527 0
                                                
  20454692.155   109495556.566 0                  20454692.822    85163207.369 0
                                                
  23742938.837   126785938.574 0                  23742940.017    98611275.196 0
                                                
  23666759.896   126556769.263 0                  23666763.685    98433031.492 0
                                                
  20040173.358   107239026.069 0                  20040173.456    83408131.111 0
                                                
  21030554.901   112262543.222 0                  21030554.997    87315314.639 0
                                                
 20  3 17  6 22 35.0000000  0 14G10G13G15G16G20G21G25G29R 5R 7R13R20
                                R21R22
  23521301.023   123605261.305 0                  23521303.957    96315765.977 0
  23521304.377                                  
  23307529.050   122481884.414 0                                  95440438.841 0
  23307528.743                                  
  21871491.085   114935447.793 0                  21871491.190    89560088.494 0
  21871491.110                                  
  23235644.994   122104147.927 0                                  95146070.675 0
  23235644.610                                  
  20994655.986   110327666.879 0                                  85969591.500 0
  20994655.743                                  
  21293589.788   111898553.672 0                                  87193680.751 0
  21293588.644                                  
  25289587.786   132897654.943 0                  25289591.365   103556587.976 0
  25289591.185                                  
  21001838.840   110365428.458 0                  21001838.977    85999019.316 0
  21001838.917                                  
  23594815.857   126127809.274 0                  23594816.321    98099406.316 0
                                                
  20451744.707   109479778.647 0                  20451745.374    85150935.654 0
                                                
  23742497.268   126783580.616 0                  23742498.448    98609441.229 0
                                                
  23669327.787   126570500.931 0                  23669331.576    98443711.678 0
                                                
  20040621.898   107241426.295 0                  20040621.996    83409997.953 0
                                                
  21028330.155   112250667.379 0                  21028330.251    87306077.872 0
                                                
 20  3 17  6 22 40.0000000  0 14G10G13G15G16G20G21G25G29R 5R 7R13R20
                                R21R22
  23518291.331   123589445.268 0                  23518294.265    96303441.793 0
  23518294.685                                  
  23307455.464   122481497.716 0                                  95440137.518 0
  23307455.157                                  
  21870431.831   114929881.377 0                  21870431.936    89555751.026 0
  21870431.856                                  
  23234387.047   122097537.371 0                                  95140919.593 0
  23234386.663                                  
  20992765.387   110317731.716 0                                  85961849.815 0
  20992765.145                                  
  21293222.000   111896620.934 0                                  87192174.721 0
  21293220.856                                  
  25292942.762   132915285.465 0                  25292946.342   103570326.045 0
  25292946.162                                  
  21003576.464   110374559.733 0                  21003576.601    86006134.596 0
  21003576.541                                  
  23598598.256   126148028.362 0                  23598598.720    98115132.273 0
                                                
  20448800.100   109464015.935 0                  20448800.767    85138675.767 0
                                                
  23742059.365   126781242.239 0                  23742060.545    98607622.491 0
                                                
  23671896.661   126584237.857 0                  23671900.451    98454395.954 0
                                                
  20041072.287   107243836.421 0                  20041072.385    83411872.495 0
                                                
  21026106.023   112238794.811 0                  21026106.119    87296843.653 0
                                                
 20  3 17  6 22 45.0000000  0 14G10G13G15G16G20G21G25G29R 5R 7R13R20
                                R21R22
  23515282.757   123573635.106 0                  23515285.691    96291122.186 0
  23515286.111                                  
  23307384.848   122481126.629 0                                  95439848.359 0
  23307384.541                                  
  21869375.547   114924330.564 0                  21869375.651    89551425.718 0
  21869375.571                                  
  23233131.999   122090942.047 0                                  95135780.379 0
  23233131.615                                  
  20990876.785   110307807.048 0                                  85954116.307 0
  20990876.543                                  
  21292854.830   111894691.441 0                                  87190671.220 0
  21292853.685                                  
  25296297.025   132932912.233 0                  25296300.604   103584061.188 0
  25296300.424                                  
  21005316.324   110383702.760 0                  21005316.461    86013259.032 0
  21005316.401                                  
  23602381.908   126168254.150 0                  23602382.372    98130863.442 0
                                                
  20445858.399   109448268.780 0                  20445859.066    85126427.980 0
                                                
  23741625.145   126778923.528 0                  23741626.325    98605819.049 0
                                                
  23674466.543   126597980.169 0                  23674470.332    98465084.419 0
                                                
  20041524.530   107246256.462 0                  20041524.628    83413754.750 0
                                                
  21023882.514   112226925.569 0                  21023882.610    87287612.020 0
                                                
 20  3 17  6 22 50.0000000  0 14G10G13G15G16G20G21G25G29R 5R 7R13R20
                                R21R22
  23512275.355   123557831.099 0                  23512278.289    96278807.375 0
  23512278.709                                  
  23307317.266   122480771.481 0                                  95439571.620 0
  23307316.959                                  
  21868322.283   114918795.626 0                  21868322.388    89547112.779 0
  21868322.308                                  
  23231879.908   122084362.265 0                                  95130653.276 0
  23231879.524                                  
  20988990.241   110297893.191 0                                  85946391.224 0
  20988989.999                                  
  21292488.341   111892765.527 0                                  87189170.508 0
  21292487.196                                  
  25299650.634   132950535.571 0                  25299654.214   103597793.659 0
  25299654.034                                  
  21007058.474   110392857.819 0                  21007058.611    86020392.844 0
  21007058.551                                  
  23606166.864   126188486.910 0                  23606167.328    98146600.033 0
                                                
  20442919.665   109432537.507 0                  20442920.332    85114192.545 0
                                                
  23741194.664   126776624.783 0                  23741195.844    98604031.137 0
                                                
  23677037.482   126611728.133 0                  23677041.271    98475777.280 0
                                                
  20041978.681   107248686.715 0                  20041978.779    83415644.946 0
                                                
  21021659.694   112215060.003 0                  21021659.790    87278383.246 0
                                                
 20  3 17  6 22 55.0000000  0 14G10G13G15G16G20G21G25G29R 5R 7R13R20
                                R21R22
  23509269.079   123542033.011 0                  23509272.013    96266497.177 0
  23509272.433                                  
  23307252.661   122480431.982 0                                  95439307.076 0
  23307252.354                                  
  21867271.992   114913276.310 0                  21867272.097    89542812.013 0
  21867272.017                                  
  23230630.743   122077797.862 0                                  95125538.157 0
  23230630.359                                  
  20987105.693   110287989.824 0                                  85938674.314 0
  20987105.451                                  
  21292122.473   111890842.878 0                                  87187672.340 0
  21292121.328                                  
  25303003.531   132968155.163 0                  25303007.110   103611523.212 0
  25303006.930                                  
  21008802.867   110402024.666 0                  21008803.004    86027535.842 0
  21008802.944                                  
  23609953.029   126208726.130 0                  23609953.492    98162341.648 0
                                                
  20439983.787   109416821.522 0                  20439984.454    85101969.001 0
                                                
  23740767.828   126774345.503 0                  23740769.008    98602258.363 0
                                                
  23679609.375   126625481.205 0                  23679613.165    98486474.113 0
                                                
  20042434.643   107251126.660 0                  20042434.741    83417542.681 0
                                                
  21019437.458   112203197.555 0                  21019437.553    87269156.898 0
                                                
 20  3 17  6 23  0.0000000  0 15G 5G10G13G15G16G20G21G25G29R 5R 7R13
                                R20R21R22
  25084751.948   131821253.379 0                  25084751.834   102717860.346 0
  25084751.734                                  
  23506263.940   123526241.137 0                  23506266.785    96254191.873 0
  23506267.225                                  
  23307191.072   122480108.330 0                                  95439054.887 0
  23307190.785                                  
  21866224.707   114907772.870 0                  21866224.807    89538523.638 0
  21866224.747                                  
  23229384.517   122071248.904 0                                  95120435.058 0
  23229384.013                                  
  20985223.186   110278097.187 0                                  85930965.768 0
  20985222.923                                  
  21291757.267   111888923.716 0                                  87186176.890 0
  21291756.103                                  
  25306355.752   132985771.406 0                  25306359.359   103625250.198 0
  25306359.179                                  
  21010549.534   110411203.458 0                  21010549.692    86034688.146 0
  21010549.632                                  
  23613740.521   126228972.458 0                  23613740.984    98178088.811 0
                                                
  20437050.866   109401121.370 0                  20437051.493    85089757.782 0
                                                
  23740344.733   126772086.367 0                  23740345.830    98600501.305 0
                                                
  23682182.380   126639239.945 0                  23682186.226    98497175.302 0
                                                
  20042892.543   107253576.839 0                  20042892.650    83419448.357 0
                                                
  21017215.931   112191338.832 0                  21017216.051    87259933.448 0
                                                
 20  3 17  6 23  5.0000000  0 15G 5G10G13G15G16G20G21G25G29R 5R 7R13
                                R20R21R22
  25088177.059   131839252.458 0                  25088176.945   102731885.602 0
  25088176.845                                  
  23503259.993   123510455.288 0                  23503262.838    96241891.211 0
  23503263.278                                  
  23307132.501   122479800.537 0                                  95438815.049 0
  23307132.214                                  
  21865180.444   114902285.230 0                  21865180.544    89534247.555 0
  21865180.484                                  
  23228141.235   122064715.413 0                                  95115344.026 0
  23228140.731                                  
  20983342.724   110268215.292 0                                  85923265.590 0
  20983342.461                                  
  21291392.734   111887008.079 0                                  87184684.186 0
  21291391.569                                  
  25309707.301   133003383.917 0                  25309710.908   103638974.233 0
  25309710.728                                  
  21012298.488   110420394.274 0                  21012298.646    86041849.821 0
  21012298.586                                  
  23617529.205   126249225.144 0                  23617529.668    98193840.901 0
                                                
  20434120.811   109385436.556 0                  20434121.438    85077558.482 0
                                                
  23739925.276   126769846.487 0                  23739926.372    98598759.176 0
                                                
  23684756.310   126653003.902 0                  23684760.156    98507880.603 0
                                                
  20043352.259   107256036.871 0                  20043352.366    83421361.716 0
                                                
  21014994.986   112179483.274 0                  21014995.105    87250712.458 0
                                                
 20  3 17  6 23 10.0000000  0 15G 5G10G13G15G16G20G21G25G29R 5R 7R13
                                R20R21R22
  25091602.221   131857251.803 0                  25091602.106   102745911.065 0
  25091602.006                                  
  23500257.198   123494675.496 0                  23500260.044    96229595.269 0
  23500260.484                                  
  23307076.944   122479508.581 0                                  95438587.551 0
  23307076.657                                  
  21864139.190   114896813.404 0                  21864139.290    89529983.795 0
  21864139.230                                  
  23226900.887   122058197.339 0                                  95110265.008 0
  23226900.383                                  
  20981464.293   110258344.074 0                                  85915573.731 0
  20981464.031                                  
  21291028.849   111885095.852 0                                  87183194.139 0
  21291027.684                                  
  25313058.164   133020992.818 0                  25313061.770   103652695.454 0
  25313061.590                                  
  21014049.706   110429596.986 0                  21014049.864    86049020.766 0
  21014049.804                                  
  23621319.161   126269484.631 0                  23621319.624    98209598.280 0
                                                
  20431193.707   109369767.538 0                  20431194.334    85065371.468 0
                                                
  23739509.554   126767626.554 0                  23739510.650    98597032.561 0
                                                
  23687331.312   126666773.596 0                  23687335.158    98518590.364 0
                                                
  20043813.882   107258507.107 0                  20043813.988    83423283.010 0
                                                
  21012774.743   112167631.466 0                  21012774.862    87241494.386 0
                                                
 20  3 17  6 23 15.0000000  0 15G 5G10G13G15G16G20G21G25G29R 5R 7R13
                                R20R21R22
  25095027.415   131875251.321 0                  25095027.301   102759936.664 0
  25095027.201                                  
  23497255.547   123478901.714 0                  23497258.393    96217304.011 0
  23497258.833                                  
  23307024.377   122479232.340 0                                  95438372.298 0
  23307024.090                                  
  21863100.933   114891357.327 0                  21863101.033    89525732.306 0
  21863100.973                                  
  23225663.456   122051694.593 0                                  95105197.933 0
  23225662.951                                  
  20979587.890   110248483.505 0                                  85907890.171 0
  20979587.627                                  
  21290665.603   111883186.983 0                                  87181706.709 0
  21290664.439                                  
  25316408.321   133038598.014 0                  25316411.928   103666413.788 0
  25316411.748                                  
  21015803.176   110438811.530 0                  21015803.333    86056200.930 0
  21015803.273                                  
  23625110.358   126289750.752 0                  23625110.821    98225360.818 0
                                                
  20428269.507   109354114.066 0                  20428270.133    85053196.545 0
                                                
  23739097.523   126765426.333 0                  23739098.619    98595321.278 0
                                                
  23689907.297   126680548.544 0                  23689911.143    98529304.213 0
                                                
  20044277.360   107260987.273 0                  20044277.466    83425212.028 0
                                                
  21010555.114   112155782.937 0                  21010555.233    87232278.862 0
                                                
 20  3 17  6 23 20.0000000  0 15G 5G10G13G15G16G20G21G25G29R 5R 7R13
                                R20R21R22
  25098452.635   131893250.971 0                  25098452.520   102773962.366 0
  25098452.420                                  
  23494255.033   123463133.908 0                  23494257.879    96205017.408 0
  23494258.319                                  
  23306974.801   122478971.816 0                                  95438169.292 0
  23306974.514                                  
  21862065.657   114885916.914 0                  21862065.757    89521493.023 0
  21862065.697                                  
  23224428.942   122045207.181 0                                  95100142.806 0
  23224428.438                                  
  20977713.501   110238633.525 0                                  85900214.862 0
  20977713.238                                  
  21290302.984   111881281.409 0                                  87180221.845 0
  21290301.820                                  
  25319757.767   133056199.472 0                  25319761.374   103680129.210 0
  25319761.194                                  
  21017558.886   110448037.851 0                  21017559.044    86063390.270 0
  21017558.984                                  
  23628902.811   126310023.584 0                  23628903.274    98241128.576 0
                                                
  20425348.234   109338476.262 0                  20425348.860    85041033.809 0
                                                
  23738689.194   126763245.877 0                  23738690.290    98593625.368 0
                                                
  23692484.284   126694328.853 0                  23692488.130    98540022.231 0
                                                
  20044742.713   107263477.471 0                  20044742.820    83427148.849 0
                                                
  21008336.135   112143937.875 0                  21008336.254    87223066.037 0
                                                
 20  3 17  6 23 25.0000000  0 15G 5G10G13G15G16G20G21G25G29R 5R 7R13
                                R20R21R22
  25101877.924   131911250.988 0                  25101877.810   102787988.353 0
  25101877.710                                  
  23491255.708   123447372.346 0                  23491258.554    96192735.672 0
  23491258.994                                  
  23306928.262   122478727.254 0                                  95437978.724 0
  23306927.975                                  
  21861033.405   114880492.392 0                  21861033.505    89517266.123 0
  21861033.445                                  
  23223197.395   122038735.359 0                                  95095099.828 0
  23223196.891                                  
  20975841.172   110228794.369 0                                  85892547.988 0
  20975840.909                                  
  21289941.045   111879379.401 0                                  87178739.762 0
  21289939.880                                  
  25323106.548   133073797.434 0                  25323110.155   103693841.908 0
  25323109.975                                  
  21019316.889   110457276.218 0                  21019317.047    86070588.998 0
  21019316.987                                  
  23632696.441   126330302.713 0                  23632696.904    98256901.232 0
                                                
  20422429.835   109322853.842 0                  20422430.461    85028883.038 0
                                                
  23738284.530   126761084.995 0                  23738285.626    98591944.682 0
                                                
  23695062.232   126708114.299 0                  23695066.078    98550744.244 0
                                                
  20045209.886   107265977.408 0                  20045209.993    83429093.244 0
                                                
  21006117.749   112132095.979 0                  21006117.868    87213855.673 0
                                                
 20  3 17  6 23 30.0000000  0 15G 5G10G13G15G16G20G21G25G29R 5R 7R13
                                R20R21R22
  25105303.220   131929251.110 0                  25105303.122   102802014.439 0
  25105303.022                                  
  23488257.514   123431616.830 0                  23488260.307    96180458.666 0
  23488260.747                                  
  23306884.708   122478498.443 0                                  95437800.447 0
  23306884.417                                  
  21860004.142   114875083.648 0                  21860004.258    89513051.534 0
  21860004.178                                  
  23221968.764   122032278.883 0                                  95090068.825 0
  23221968.292                                  
  20973970.843   110218965.865 0                                  85884889.439 0
  20973970.592                                  
  21289579.734   111877480.763 0                                  87177260.319 0
  21289578.585                                  
  25326454.620   133091391.528 0                  25326458.335   103707551.556 0
  25326458.155                                  
  21021077.150   110466526.390 0                  21021077.352    86077796.901 0
  21021077.292                                  
  23636491.350   126350588.755 0                  23636491.828    98272679.277 0
                                                
  20419514.403   109307247.498 0                  20419515.058    85016744.794 0
                                                
  23737883.584   126758944.061 0                  23737884.648    98590279.506 0
                                                
  23697641.269   126721905.490 0                  23697645.119    98561470.690 0
                                                
  20045678.989   107268487.803 0                  20045679.088    83431045.789 0
                                                
  21003900.041   112120257.943 0                  21003900.232    87204648.329 0
                                                
 20  3 17  6 23 35.0000000  0 15G 5G10G13G15G16G20G21G25G29R 5R 7R13
                                R20R21R22
  25108728.600   131947251.601 0                  25108728.501   102816040.795 0
  25108728.401                                  
  23485260.525   123415867.549 0                  23485263.318    96168186.498 0
  23485263.758                                  
  23306844.204   122478285.594 0                                  95437634.591 0
  23306843.913                                  
  21858977.929   114869690.862 0                  21858978.045    89508849.364 0
  21858977.965                                  
  23220743.118   122025838.071 0                                  95085050.010 0
  23220742.646                                  
  20972102.605   110209148.208 0                                  85877239.317 0
  20972102.354                                  
  21289219.119   111875585.721 0                                  87175783.663 0
  21289217.971                                  
  25329802.020   133108982.233 0                  25329805.735   103721258.599 0
  25329805.555                                  
  21022839.703   110475788.666 0                  21022839.904    86085014.258 0
  21022839.844                                  
  23640287.498   126370881.344 0                  23640287.976    98288462.402 0
                                                
  20416601.918   109291656.742 0                  20416602.573    85004618.650 0
                                                
  23737486.323   126756822.711 0                  23737487.387    98588629.567 0
                                                
  23700221.277   126735701.954 0                  23700225.128    98572201.273 0
                                                
  20046149.962   107271008.071 0                  20046150.060    83433005.998 0
                                                
  21001683.017   112108423.322 0                  21001683.208    87195443.624 0
                                                
 20  3 17  6 23 40.0000000  0 15G 5G10G13G15G16G20G21G25G29R 5R 7R13
                                R20R21R22
  25112153.988   131965252.136 0                  25112153.889   102830067.186 0
  25112153.789                                  
  23482264.679   123400124.270 0                  23482267.472    96155919.008 0
  23482267.912                                  
  23306806.688   122478088.444 0                                  95437480.968 0
  23306806.397                                  
  21857954.709   114864313.805 0                  21857954.825    89504659.449 0
  21857954.745                                  
  23219520.388   122019412.582 0                                  95080043.135 0
  23219519.916                                  
  20970236.377   110199341.111 0                                  85869597.423 0
  20970236.126                                  
  21288859.131   111873693.972 0                                  87174309.573 0
  21288857.983                                  
  25333148.694   133126569.126 0                  25333152.409   103734962.671 0
  25333152.229                                  
  21024604.490   110485062.687 0                  21024604.692    86092240.768 0
  21024604.632                                  
  23644084.870   126391180.474 0                  23644085.348    98304250.614 0
                                                
  20413692.367   109276081.685 0                  20413693.022    84992504.716 0
                                                
  23737092.760   126754721.107 0                  23737093.824    98586994.986 0
                                                
  23702802.290   126749503.788 0                  23702806.140    98582936.033 0
                                                
  20046622.813   107273538.395 0                  20046622.912    83434974.027 0
                                                
  20999466.630   112096592.094 0                  20999466.821    87186241.558 0
                                                
 20  3 17  6 23 45.0000000  0 15G 5G10G13G15G16G20G21G25G29R 5R 7R13
                                R20R21R22
  25115579.411   131983252.854 0                  25115579.312   102844093.720 0
  25115579.212                                  
  23479269.994   123384387.096 0                  23479272.787    96143656.275 0
  23479273.227                                  
  23306772.183   122477907.122 0                                  95437339.678 0
  23306771.892                                  
  21856934.500   114858952.567 0                  21856934.615    89500481.861 0
  21856934.535                                  
  23218300.599   122013002.547 0                                  95075048.303 0
  23218300.127                                  
  20968372.182   110189544.703 0                                  85861963.858 0
  20968371.931                                  
  21288499.796   111871805.652 0                                  87172838.155 0
  21288498.648                                  
  25336494.667   133144152.331 0                  25336498.382   103748663.870 0
  25336498.202                                  
  21026371.544   110494348.619 0                  21026371.746    86099476.560 0
  21026371.686                                  
  23647883.475   126411486.192 0                  23647883.953    98320043.950 0
                                                
  20410785.755   109260522.365 0                  20410786.410    84980403.023 0
                                                
  23736702.899   126752639.269 0                  23736703.963    98585375.779 0
                                                
  23705384.326   126763311.098 0                  23705388.177    98593675.051 0
                                                
  20047097.541   107276078.759 0                  20047097.640    83436949.867 0
                                                
  20997250.895   112084764.353 0                  20997251.086    87177042.204 0
                                                
 20  3 17  6 23 50.0000000  0 15G 5G10G13G15G16G20G21G25G29R 5R 7R13
                                R20R21R22
  25119004.865   132001253.737 0                  25119004.766   102858120.382 0
  25119004.666                                  
  23476276.479   123368656.064 0                  23476279.272    96131398.328 0
  23476279.712                                  
  23306740.694   122477741.642 0                                  95437210.732 0
  23306740.402                                  
  21855917.300   114853607.148 0                  21855917.416    89496316.600 0
  21855917.336                                  
  23217083.756   122006607.994 0                                  95070065.535 0
  23217083.284                                  
  20966510.025   110179758.997 0                                  85854338.633 0
  20966509.773                                  
  21288141.111   111869920.752 0                                  87171369.401 0
  21288139.963                                  
  25339839.936   133161731.838 0                  25339843.651   103762362.187 0
  25339843.471                                  
  21028140.857   110503646.418 0                  21028141.058    86106721.598 0
  21028140.998                                  
  23651683.278   126431798.319 0                  23651683.756    98335842.271 0
                                                
  20407882.081   109244978.767 0                  20407882.736    84968313.558 0
                                                
  23736316.731   126750577.155 0                  23736317.795    98583771.913 0
                                                
  23707967.369   126777123.787 0                  23707971.219    98604418.254 0
                                                
  20047574.145   107278629.160 0                  20047574.243    83438933.512 0
                                                
  20995035.827   112072940.171 0                  20995036.019    87167845.617 0
                                                
 20  3 17  6 23 55.0000000  0 15G 5G10G13G15G16G20G21G25G29R 5R 7R13
                                R20R21R22
  25122430.342   132019254.743 0                  25122430.244   102872147.140 0
  25122430.144                                  
  23473284.125   123352931.140 0                  23473286.918    96119145.141 0
  23473287.358                                  
  23306712.215   122477591.984 0                                  95437094.116 0
  23306711.924                                  
  21854903.122   114848277.608 0                  21854903.238    89492163.711 0
  21854903.158                                  
  23215869.858   122000228.917 0                                  95065094.825 0
  23215869.386                                  
  20964649.902   110169983.987 0                                  85846721.742 0
  20964649.651                                  
  21287783.073   111868039.248 0                                  87169903.295 0
  21287781.925                                  
  25343184.495   133179307.615 0                  25343188.210   103776057.598 0
  25343188.030                                  
  21029912.431   110512956.103 0                  21029912.632    86113975.897 0
  21029912.572                                  
  23655484.305   126452116.986 0                  23655484.783    98351645.679 0
                                                
  20404981.334   109229450.841 0                  20404981.989    84956236.283 0
                                                
  23735934.277   126748534.873 0                  23735935.341    98582183.471 0
                                                
  23710551.397   126790941.748 0                  23710555.248    98615165.557 0
                                                
  20048052.625   107281189.603 0                  20048052.723    83440924.967 0
                                                
  20992821.412   112061119.470 0                  20992821.603    87158651.739 0
                                                
 20  3 17  6 24  0.0000000  0 15G 5G10G13G15G16G20G21G25G29R 5R 7R13
                                R20R21R22
  25125855.776   132037255.774 0                  25125855.682   102886173.990 0
  25125855.582                                  
  23470292.872   123337212.179 0                  23470295.701    96106896.634 0
  23470296.121                                  
  23306686.696   122477457.952 0                                  95436989.701 0
  23306686.401                                  
  21853891.910   114842963.795 0                  21853891.997    89488023.113 0
  21853891.937                                  
  23214658.852   121993865.044 0                                  95060135.960 0
  23214658.432                                  
  20962791.767   110160219.497 0                                  85839113.083 0
  20962791.492                                  
  21287425.638   111866160.920 0                                  87168439.664 0
  21287424.509                                  
  25346528.273   133196879.527 0                  25346532.053   103789750.065 0
  25346531.873                                  
  21031686.235   110522277.401 0                  21031686.396    86121239.255 0
  21031686.356                                  
  23659286.555   126472442.280 0                  23659286.988    98367454.297 0
                                                
  20402083.542   109213938.818 0                  20402084.212    84944171.421 0
                                                
  23735555.515   126746512.295 0                  23735556.592    98580610.383 0
                                                
  23713136.461   126804765.246 0                  23713140.232    98625917.183 0
                                                
  20048532.984   107283760.112 0                  20048533.101    83442924.279 0
                                                
  20990607.654   112049302.356 0                  20990607.840    87149460.703 0
                                                
 20  3 17  6 24  5.0000000  0 15G 5G10G13G15G16G20G21G25G29R 5R 7R13
                                R20R21R22
  25129281.339   132055257.232 0                  25129281.245   102900201.100 0
  25129281.145                                  
  23467302.889   123321499.712 0                  23467305.717    96094653.153 0
  23467306.137                                  
  23306664.285   122477340.182 0                                  95436897.932 0
  23306663.990                                  
  21852883.821   114837666.248 0                  21852883.908    89483895.155 0
  21852883.848                                  
  23213450.877   121987517.093 0                                  95055189.505 0
  23213450.457                                  
  20960935.749   110150466.054 0                                  85831512.998 0
  20960935.473                                  
  21287068.933   111864286.420 0                                  87166979.014 0
  21287067.804                                  
  25349871.442   133214448.000 0                  25349875.223   103803439.785 0
  25349875.043                                  
  21033462.367   110531611.038 0                  21033462.528    86128512.218 0
  21033462.488                                  
  23663089.971   126492773.717 0                  23663090.404    98383267.637 0
                                                
  20399188.664   109198442.307 0                  20399189.333    84932118.580 0
                                                
  23735180.421   126744509.311 0                  23735181.497    98579052.507 0
                                                
  23715722.497   126818593.942 0                  23715726.268    98636672.835 0
                                                
  20049015.194   107286340.517 0                  20049015.312    83444931.261 0
                                                
  20988394.525   112037488.526 0                  20988394.711    87140272.168 0
                                                
 20  3 17  6 24 10.0000000  0 15G 5G10G13G15G16G20G21G25G29R 5R 7R13
                                R20R21R22
  25132706.906   132073258.703 0                  25132706.811   102914228.220 0
  25132706.711                                  
  23464314.052   123305793.267 0                  23464316.880    96082414.365 0
  23464317.300                                  
  23306644.865   122477238.129 0                                  95436818.410 0
  23306644.570                                  
  21851878.727   114832384.447 0                  21851878.814    89479779.466 0
  21851878.754                                  
  23212245.828   121981184.518 0                                  95050255.031 0
  23212245.409                                  
  20959081.745   110140723.200 0                                  85823921.164 0
  20959081.470                                  
  21286712.860   111862415.243 0                                  87165520.954 0
  21286711.731                                  
  25353213.875   133232012.605 0                  25353217.656   103817126.490 0
  25353217.476                                  
  21035240.737   110540956.436 0                  21035240.898    86135794.347 0
  21035240.858                                  
  23666894.658   126513111.949 0                  23666895.090    98399086.262 0
                                                
  20396296.800   109182961.935 0                  20396297.470    84920078.290 0
                                                
  23734809.082   126742526.383 0                  23734810.159    98577510.230 0
                                                
  23718309.605   126832428.367 0                  23718313.375    98647432.944 0
                                                
  20049499.352   107288931.346 0                  20049499.470    83446946.351 0
                                                
  20986182.113   112025678.521 0                  20986182.300    87131086.609 0
                                                
 20  3 17  6 24 15.0000000  0 15G 5G10G13G15G16G20G21G25G29R 5R 7R13
                                R20R21R22
  25136132.480   132091260.220 0                  25136132.386   102928255.377 0
  25136132.286                                  
  23461326.372   123290092.905 0                  23461329.201    96070180.317 0
  23461329.621                                  
  23306628.448   122477151.858 0                                  95436751.186 0
  23306628.153                                  
  21850876.648   114827118.485 0                  21850876.735    89475676.119 0
  21850876.675                                  
  23211043.717   121974867.378 0                                  95045332.584 0
  23211043.297                                  
  20957229.770   110130991.001 0                                  85816337.632 0
  20957229.494                                  
  21286357.427   111860547.431 0                                  87164065.516 0
  21286356.298                                  
  25356555.576   133249573.362 0                  25356559.357   103830810.197 0
  25356559.177                                  
  21037021.357   110550313.657 0                  21037021.518    86143085.688 0
  21037021.478                                  
  23670700.514   126533456.435 0                  23670700.947    98414909.750 0
                                                
  20393407.862   109167497.223 0                  20393408.532    84908050.181 0
                                                
  23734441.405   126740563.009 0                  23734442.482    98575983.161 0
                                                
  23720897.723   126846268.201 0                  23720901.494    98658197.259 0
                                                
  20049985.370   107291532.123 0                  20049985.488    83448969.177 0
                                                
  20983970.348   112013871.967 0                  20983970.534    87121903.734 0
                                                
 20  3 17  6 24 20.0000000  0 15G 5G10G13G15G16G20G21G25G29R 5R 7R13
                                R20R21R22
  25139558.080   132109261.870 0                  25139557.986   102942282.636 0
  25139557.886                                  
  23458339.868   123274398.716 0                  23458342.696    96057951.079 0
  23458343.116                                  
  23306615.050   122477081.447 0                                  95436696.320 0
  23306614.754                                  
  21849877.596   114821868.432 0                  21849877.683    89471585.168 0
  21849877.623                                  
  23209844.557   121968565.751 0                                  95040422.225 0
  23209844.137                                  
  20955379.838   110121269.544 0                                  85808762.471 0
  20955379.562                                  
  21286002.642   111858683.025 0                                  87162612.732 0
  21286001.513                                  
  25359896.559   133267130.345 0                  25359900.339   103844490.963 0
  25359900.159                                  
  21038804.236   110559682.750 0                  21038804.397    86150386.280 0
  21038804.357                                  
  23674507.578   126553807.369 0                  23674508.010    98430738.255 0
                                                
  20390521.895   109152048.414 0                  20390522.564    84896034.441 0
                                                
  23734077.412   126738619.306 0                  23734078.489    98574471.391 0
                                                
  23723486.817   126860113.251 0                  23723490.588    98668965.631 0
                                                
  20050473.275   107294143.004 0                  20050473.393    83450999.862 0
                                                
  20981759.250   112002068.978 0                  20981759.437    87112723.631 0
                                                
 20  3 17  6 24 25.0000000  0 15G 5G10G13G15G16G20G21G25G29R 5R 7R13
                                R20R21R22
  25142983.698   132127263.611 0                  25142983.604   102956309.967 0
  25142983.504                                  
  23455354.535   123258710.687 0                  23455357.363    96045726.640 0
  23455357.783                                  
  23306604.655   122477026.824 0                                  95436653.757 0
  23306604.360                                  
  21848881.574   114816634.297 0                  21848881.660    89467506.622 0
  21848881.600                                  
  23208648.346   121962279.621 0                                  95035523.942 0
  23208647.926                                  
  20953531.949   110111558.822 0                                  85801195.674 0
  20953531.673                                  
  21285648.506   111856822.025 0                                  87161162.602 0
  21285647.377                                  
  25363236.823   133284683.553 0                  25363240.604   103858168.787 0
  25363240.424                                  
  21040589.372   110569063.702 0                  21040589.533    86157696.113 0
  21040589.493                                  
  23678315.838   126574164.703 0                  23678316.271    98446571.736 0
                                                
  20387638.885   109136615.438 0                  20387639.555    84884031.015 0
                                                
  23733717.120   126736695.369 0                  23733718.197    98572974.996 0
                                                
  23726076.931   126873963.751 0                  23726080.702    98679738.242 0
                                                
  20050963.058   107296763.929 0                  20050963.176    83453038.360 0
                                                
  20979548.808   111990269.487 0                  20979548.994    87103546.249 0
                                                
 20  3 17  6 24 30.0000000  0 15G 5G10G13G15G16G20G21G25G29R 5R 7R13
                                R20R21R22
  25146409.296   132145265.330 0                  25146409.157   102970337.292 0
  25146409.057                                  
  23452370.341   123243028.779 0                  23452373.168    96033507.011 0
  23452373.588                                  
  23306597.244   122476987.933 0                                  95436623.459 0
  23306596.985                                  
  21847888.540   114811416.006 0                  21847888.618    89463440.447 0
  21847888.538                                  
  23207455.045   121956008.870 0                                  95030637.647 0
  23207454.680                                  
  20951686.062   110101858.723 0                                  85793637.174 0
  20951685.754                                  
  21285294.997   111854964.282 0                                  87159715.018 0
  21285293.864                                  
  25366576.334   133302232.752 0                  25366580.109   103871843.493 0
  25366579.929                                  
  21042376.739   110578456.378 0                  21042376.900    86165015.065 0
  21042376.840                                  
  23682125.280   126594528.412 0                  23682125.709    98462410.217 0
                                                
  20384758.807   109121198.148 0                  20384759.457    84872039.822 0
                                                
  23733360.538   126734791.123 0                  23733361.609    98571493.923 0
                                                
  23728668.028   126887819.432 0                  23728671.784    98690514.879 0
                                                
  20051454.723   107299394.865 0                  20051454.845    83455084.651 0
                                                
  20977339.040   111978473.553 0                  20977339.223    87094371.658 0
                                                
 20  3 17  6 24 35.0000000  0 15G 5G10G13G15G16G20G21G25G29R 5R 7R13
                                R20R21R22
  25149834.974   132163267.387 0                  25149834.835   102984364.869 0
  25149834.735                                  
  23449387.388   123227353.257 0                  23449390.215    96021292.318 0
  23449390.635                                  
  23306592.918   122476965.202 0                                  95436605.746 0
  23306592.659                                  
  21846898.604   114806213.857 0                  21846898.682    89459386.824 0
  21846898.602                                  
  23206264.769   121949753.929 0                                  95025763.667 0
  23206264.405                                  
  20949842.282   110092169.594 0                                  85786087.204 0
  20949841.974                                  
  21284942.183   111853110.230 0                                  87158270.303 0
  21284941.050                                  
  25369915.179   133319778.503 0                  25369918.954   103885515.507 0
  25369918.774                                  
  21044166.423   110587861.231 0                  21044166.584    86172343.521 0
  21044166.524                                  
  23685935.926   126614898.499 0                  23685936.355    98478253.617 0
                                                
  20381881.739   109105796.980 0                  20381882.389    84860061.135 0
                                                
  23733007.660   126732906.774 0                  23733008.731    98570028.318 0
                                                
  23731260.166   126901680.756 0                  23731263.922    98701295.908 0
                                                
  20051948.310   107302036.145 0                  20051948.432    83457138.980 0
                                                
  20975129.957   111966681.318 0                  20975130.140    87085199.920 0
                                                
 20  3 17  6 24 40.0000000  0 15G 5G10G13G15G16G20G21G25G29R 5R 7R13
                                R20R21R22
  25153260.642   132181269.393 0                  25153260.502   102998392.406 0
  25153260.402                                  
  23446405.589   123211683.798 0                  23446408.417    96009082.350 0
  23446408.837                                  
  23306591.580   122476958.173 0                                  95436600.269 0
  23306591.322                                  
  21845911.673   114801027.504 0                  21845911.752    89455345.510 0
  21845911.672                                  
  23205077.424   121943514.385 0                                  95020901.685 0
  23205077.059                                  
  20948000.515   110082491.040 0                                  85778545.474 0
  20948000.207                                  
  21284589.994   111851259.468 0                                  87156828.150 0
  21284588.862                                  
  25373253.272   133337320.300 0                  25373257.047   103899184.440 0
  25373256.867                                  
  21045958.336   110597277.799 0                  21045958.498    86179681.107 0
  21045958.438                                  
  23689747.759   126635274.929 0                  23689748.188    98494101.952 0
                                                
  20379007.634   109090411.669 0                  20379008.284    84848094.783 0
                                                
  23732658.459   126731042.063 0                  23732659.530    98568577.987 0
                                                
  23733853.294   126915547.378 0                  23733857.050    98712081.059 0
                                                
  20052443.773   107304687.467 0                  20052443.895    83459201.119 0
                                                
  20972921.537   111954892.617 0                  20972921.719    87076030.931 0
                                                
 20  3 17  6 24 45.0000000  0 15G 5G10G13G15G16G20G21G25G29R 5R 7R13
                                R20R21R22
  25156686.306   132199271.382 0                  25156686.167   103012419.930 0
  25156686.067                                  
  23443424.954   123196020.452 0                  23443427.781    95996877.145 0
  23443428.201                                  
  23306593.246   122476966.924 0                                  95436607.088 0
  23306592.987                                  
  21844927.768   114795857.048 0                  21844927.847    89451316.583 0
  21844927.767                                  
  23203893.019   121937290.297 0                                  95016051.745 0
  23203892.654                                  
  20946160.776   110072823.149 0                                  85771012.052 0
  20946160.468                                  
  21284238.444   111849412.058 0                                  87155388.610 0
  21284237.311                                  
  25376590.618   133354858.174 0                  25376594.394   103912850.316 0
  25376594.214                                  
  21047752.490   110606706.143 0                  21047752.652    86187027.868 0
  21047752.592                                  
  23693560.747   126655657.536 0                  23693561.176    98509955.091 0
                                                
  20376136.476   109075042.137 0                  20376137.126    84836140.702 0
                                                
  23732312.922   126729196.916 0                  23732313.994    98567142.873 0
                                                
  23736447.413   126929419.298 0                  23736451.169    98722870.330 0
                                                
  20052941.095   107307348.740 0                  20052941.217    83461270.998 0
                                                
  20970713.759   111943107.352 0                  20970713.942    87066864.613 0
                                                
 20  3 17  6 24 50.0000000  0 15G 5G10G13G15G16G20G21G25G29R 5R 7R13
                                R20R21R22
  25160112.012   132217273.588 0                  25160111.873   103026447.623 0
  25160111.773                                  
  23440445.527   123180363.456 0                  23440448.354    95984676.889 0
  23440448.774                                  
  23306597.958   122476991.689 0                                  95436626.385 0
  23306597.699                                  
  21843946.926   114790702.687 0                  21843947.005    89447300.199 0
  21843946.925                                  
  23202711.594   121931081.868 0                                  95011214.009 0
  23202711.229                                  
  20944323.105   110063166.123 0                                  85763487.096 0
  20944322.797                                  
  21283887.573   111847568.221 0                                  87153951.854 0
  21283886.441                                  
  25379927.264   133372392.365 0                  25379931.039   103926513.322 0
  25379930.859                                  
  21049548.931   110616146.501 0                  21049549.092    86194383.991 0
  21049549.032                                  
  23697374.951   126676046.642 0                  23697375.380    98525813.284 0
                                                
  20373268.344   109059688.804 0                  20373268.994    84824199.221 0
                                                
  23731971.137   126727371.802 0                  23731972.208    98565723.339 0
                                                
  23739042.609   126943296.976 0                  23739046.365    98733664.079 0
                                                
  20053440.364   107310020.429 0                  20053440.486    83463348.979 0
                                                
  20968506.713   111931325.989 0                  20968506.895    87057701.330 0
                                                
 20  3 17  6 24 55.0000000  0 15G 5G10G13G15G16G20G21G25G29R 5R 7R13
                                R20R21R22
  25163537.681   132235275.602 0                  25163537.542   103040475.166 0
  25163537.442                                  
  23437467.241   123164712.461 0                  23437470.068    95972481.308 0
  23437470.488                                  
  23306605.651   122477032.112 0                                  95436657.884 0
  23306605.392                                  
  21842969.078   114785564.062 0                  21842969.157    89443296.075 0
  21842969.077                                  
  23201533.084   121924888.757 0                                  95006388.208 0
  23201532.720                                  
  20942487.439   110053519.629 0                                  85755970.348 0
  20942487.130                                  
  21283537.315   111845727.600 0                                  87152517.603 0
  21283536.182                                  
  25383263.135   133389922.484 0                  25383266.910   103940173.155 0
  25383266.730                                  
  21051347.587   110625598.503 0                  21051347.748    86201749.188 0
  21051347.688                                  
  23701190.344   126696442.102 0                  23701190.773    98541676.420 0
                                                
  20370403.176   109044351.334 0                  20370403.826    84812270.078 0
                                                
  23731633.023   126725566.294 0                  23731634.095    98564319.055 0
                                                
  23741638.795   126957179.950 0                  23741642.551    98744461.948 0
                                                
  20053941.501   107312702.114 0                  20053941.623    83465434.734 0
                                                
  20966300.317   111919548.099 0                  20966300.500    87048540.749 0
                                                
 20  3 17  6 25  0.0000000  0 15G 5G10G13G15G16G20G21G25G29R 5R 7R13
                                R20R21R22
  25166963.347   132253277.892 0                  25166963.190   103054503.007 0
  25166963.090                                  
  23434490.150   123149067.871 0                  23434493.020    95960290.755 0
  23434493.440                                  
  23306616.350   122477088.407 0                                  95436701.775 0
  23306616.067                                  
  21841994.289   114780441.580 0                  21841994.344    89439304.556 0
  21841994.284                                  
  23200357.569   121918711.347 0                                  95001574.659 0
  23200357.181                                  
  20940653.829   110043884.079 0                                  85748462.160 0
  20940653.553                                  
  21283187.725   111843890.559 0                                  87151086.169 0
  21283186.588                                  
  25386598.308   133407448.866 0                  25386602.048   103953830.066 0
  25386601.868                                  
  21053148.523   110635062.485 0                  21053148.704    86209123.728 0
  21053148.644                                  
  23705006.868   126716843.464 0                  23705007.280    98557544.136 0
                                                
  20367540.924   109029029.623 0                  20367541.565    84800353.212 0
                                                
  23731298.585   126723780.243 0                  23731299.720    98562929.873 0
                                                
  23744235.955   126971067.998 0                  23744239.839    98755263.730 0
                                                
  20054444.504   107315393.727 0                  20054444.609    83467528.196 0
                                                
  20964094.566   111907773.623 0                  20964094.724    87039382.827 0
                                                
 20  3 17  6 25  5.0000000  0 15G 5G10G13G15G16G20G21G25G29R 5R 7R13
                                R20R21R22
  25170389.059   132271280.127 0                  25170388.902   103068530.722 0
  25170388.802                                  
  23431514.270   123133429.516 0                  23431517.140    95948105.024 0
  23431517.560                                  
  23306630.094   122477160.630 0                                  95436758.053 0
  23306629.811                                  
  21841022.553   114775335.069 0                  21841022.607    89435325.457 0
  21841022.547                                  
  23199185.022   121912549.571 0                                  94996773.275 0
  23199184.634                                  
  20938822.297   110034259.308 0                                  85740962.339 0
  20938822.020                                  
  21282838.796   111842056.925 0                                  87149657.363 0
  21282837.659                                  
  25389932.751   133424971.483 0                  25389936.491   103967484.053 0
  25389936.311                                  
  21054951.727   110644538.388 0                  21054951.909    86216507.548 0
  21054951.849                                  
  23708824.595   126737251.406 0                  23708825.007    98573416.979 0
                                                
  20364681.741   109013724.193 0                  20364682.382    84788448.989 0
                                                
  23730967.876   126722014.277 0                  23730969.011    98561556.343 0
                                                
  23746834.144   126984961.682 0                  23746838.028    98766069.928 0
                                                
  20054949.458   107318095.837 0                  20054949.563    83469629.837 0
                                                
  20961889.553   111896003.109 0                  20961889.710    87030227.983 0
                                                
 20  3 17  6 25 10.0000000  0 15G 5G10G13G15G16G20G21G25G29R 5R 7R13
                                R20R21R22
  25173814.775   132289282.385 0                  25173814.618   103082558.456 0
  25173814.518                                  
  23428539.570   123117797.361 0                  23428542.440    95935924.124 0
  23428542.860                                  
  23306646.869   122477248.782 0                                  95436826.743 0
  23306646.586                                  
  21840053.833   114770244.413 0                  21840053.887    89431358.711 0
  21840053.827                                  
  23198015.423   121906403.286 0                                  94991983.962 0
  23198015.034                                  
  20936992.806   110024645.268 0                                  85733470.879 0
  20936992.529                                  
  21282490.508   111840226.663 0                                  87148231.184 0
  21282489.372                                  
  25393266.441   133442490.142 0                  25393270.181   103981134.956 0
  25393270.001                                  
  21056757.182   110654026.116 0                  21056757.363    86223900.582 0
  21056757.303                                  
  23712643.471   126757665.485 0                  23712643.883    98589294.596 0
                                                
  20361825.508   108998434.555 0                  20361826.149    84776557.048 0
                                                
  23730640.837   126720267.905 0                  23730641.972    98560198.054 0
                                                
  23749433.345   126998860.778 0                  23749437.229    98776880.336 0
                                                
  20055456.282   107320807.959 0                  20055456.388    83471739.265 0
                                                
  20959685.206   111884236.157 0                  20959685.364    87021075.909 0
                                                
 20  3 17  6 25 15.0000000  0 15G 5G10G13G15G16G20G21G25G29R 5R 7R13
                                R20R21R22
  25177240.502   132307284.701 0                  25177240.344   103096586.235 0
  25177240.244                                  
  23425566.074   123102171.538 0                  23425568.944    95923748.158 0
  23425569.364                                  
  23306666.685   122477352.920 0                                  95436907.889 0
  23306666.402                                  
  21839088.182   114765169.881 0                  21839088.236    89427404.530 0
  21839088.176                                  
  23196848.803   121900272.655 0                                  94987206.847 0
  23196848.414                                  
  20935165.377   110015042.065 0                                  85725987.864 0
  20935165.100                                  
  21282142.883   111838399.878 0                                  87146807.716 0
  21282141.746                                  
  25396599.410   133460005.012 0                  25396603.150   103994782.907 0
  25396602.970                                  
  21058564.906   110663525.771 0                  21058565.088    86231302.912 0
  21058565.028                                  
  23716463.506   126778085.760 0                  23716463.918    98605177.032 0
                                                
  20358972.260   108983160.896 0                  20358972.901    84764677.536 0
                                                
  23730317.503   126718541.319 0                  23730318.638    98558855.154 0
                                                
  23752033.532   127012765.147 0                  23752037.416    98787694.845 0
                                                
  20055964.993   107323530.174 0                  20055965.099    83473856.543 0
                                                
  20957481.514   111872472.700 0                  20957481.672    87011926.554 0
                                                
 20  3 17  6 25 20.0000000  0 15G 5G10G13G15G16G20G21G25G29R 5R 7R13
                                R20R21R22
  25180666.216   132325286.950 0                  25180666.058   103110613.961 0
  25180665.958                                  
  23422593.749   123086551.865 0                  23422596.619    95911576.984 0
  23422597.039                                  
  23306689.510   122477472.867 0                                  95437001.355 0
  23306689.227                                  
  21838125.558   114760111.260 0                  21838125.613    89423462.748 0
  21838125.553                                  
  23195685.128   121894157.504 0                                  94982441.794 0
  23195684.740                                  
  20933339.973   110005449.504 0                                  85718513.140 0
  20933339.697                                  
  21281795.889   111836576.412 0                                  87145386.833 0
  21281794.752                                  
  25399931.620   133477515.893 0                  25399935.359   104008427.750 0
  25399935.179                                  
  21060374.866   110673037.173 0                  21060375.047    86238714.394 0
  21060374.987                                  
  23720284.706   126798512.265 0                  23720285.118    98621064.314 0
                                                
  20356122.028   108967903.381 0                  20356122.669    84752810.580 0
                                                
  23729997.884   126716834.572 0                  23729999.019    98557527.684 0
                                                
  23754634.727   127026674.906 0                  23754638.611    98798513.547 0
                                                
  20056475.632   107326262.702 0                  20056475.737    83475981.843 0
                                                
  20955278.515   111860712.939 0                  20955278.672    87002780.073 0
                                                
 20  3 17  6 25 25.0000000  0 15G 5G10G13G15G16G20G21G25G29R 5R 7R13
                                R20R21R22
  25184091.945   132343289.280 0                  25184091.788   103124641.751 0
  25184091.688                                  
  23419622.618   123070938.464 0                  23419625.488    95899410.697 0
  23419625.908                                  
  23306715.371   122477608.763 0                                  95437107.248 0
  23306715.088                                  
  21837165.990   114755068.697 0                  21837166.045    89419533.478 0
  21837165.985                                  
  23194524.419   121888057.933 0                                  94977688.881 0
  23194524.030                                  
  20931516.625   109995867.744 0                                  85711046.834 0
  20931516.348                                  
  21281449.549   111834756.382 0                                  87143968.628 0
  21281448.412                                  
  25403263.091   133495022.890 0                  25403266.830   104022069.565 0
  25403266.650                                  
  21062187.082   110682560.435 0                  21062187.264    86246135.117 0
  21062187.204                                  
  23724107.049   126818944.875 0                  23724107.460    98636956.344 0
                                                
  20353274.787   108952661.876 0                  20353275.428    84740956.076 0
                                                
  23729681.958   126715147.547 0                  23729683.093    98556215.553 0
                                                
  23757236.944   127040590.129 0                  23757240.828    98809336.498 0
                                                
  20056988.152   107329005.303 0                  20056988.257    83478114.977 0
                                                
  20953076.211   111848956.893 0                  20953076.369    86993636.481 0
                                                
 20  3 17  6 25 30.0000000  0 15G 5G10G13G15G16G20G21G25G29R 5R 7R13
                                R20R21R22
  25187517.618   132361291.447 0                  25187517.432   103138669.448 0
  25187517.312                                  
  23416652.634   123055331.157 0                  23416655.464    95887249.180 0
  23416655.884                                  
  23306744.208   122477760.365 0                                  95437225.403 0
  23306743.881                                  
  21836209.417   114750042.014 0                  21836209.443    89415616.618 0
  21836209.383                                  
  23193366.613   121881973.728 0                                  94972947.955 0
  23193366.217                                  
  20929695.275   109986296.557 0                                  85703588.792 0
  20929695.015                                  
  21281103.792   111832939.594 0                                  87142552.966 0
  21281102.651                                  
  25406593.756   133512525.730 0                  25406597.411   104035708.160 0
  25406597.231                                  
  21064001.506   110692095.303 0                  21064001.667    86253564.886 0
  21064001.627                                  
  23727930.585   126839383.910 0                  23727931.094    98652853.340 0
                                                
  20350430.530   108937436.536 0                  20350431.199    84729114.126 0
                                                
  23729369.727   126713480.137 0                  23729370.915    98554918.617 0
                                                
  23759840.130   127054510.622 0                  23759843.989    98820163.537 0
                                                
  20057502.576   107331758.146 0                  20057502.678    83480256.050 0
                                                
  20950874.591   111837204.557 0                  20950874.745    86984495.758 0
                                                
 20  3 17  6 25 35.0000000  0 15G 5G10G13G15G16G20G21G25G29R 5R 7R13
                                R20R21R22
  25190943.377   132379293.936 0                  25190943.192   103152697.361 0
  25190943.072                                  
  23413683.922   123039730.467 0                  23413686.751    95875092.798 0
  23413687.171                                  
  23306776.147   122477928.208 0                                  95437356.190 0
  23306775.820                                  
  21835255.983   114745031.682 0                  21835256.008    89411712.463 0
  21835255.948                                  
  23192211.864   121875905.479 0                                  94968219.449 0
  23192211.468                                  
  20927876.058   109976736.503 0                                  85696139.399 0
  20927875.797                                  
  21280758.789   111831126.589 0                                  87141140.235 0
  21280757.648                                  
  25409923.764   133530025.040 0                  25409927.419   104049343.987 0
  25409927.239                                  
  21065818.263   110701642.422 0                  21065818.424    86261004.199 0
  21065818.384                                  
  23731755.245   126859828.911 0                  23731755.755    98668755.008 0
                                                
  20347589.285   108922227.130 0                  20347589.954    84717284.589 0
                                                
  23729061.163   126711832.424 0                  23729062.351    98553637.063 0
                                                
  23762444.342   127068436.514 0                  23762448.201    98830994.786 0
                                                
  20058018.889   107334521.038 0                  20058018.991    83482404.966 0
                                                
  20948673.650   111825455.783 0                  20948673.804    86975357.823 0
                                                
 20  3 17  6 25 40.0000000  0 15G 5G10G13G15G16G20G21G25G29R 5R 7R13
                                R20R21R22
  25194369.092   132397296.187 0                  25194368.906   103166725.089 0
  25194368.786                                  
  23410716.357   123024135.807 0                  23410719.186    95862941.115 0
  23410719.606                                  
  23306811.075   122478111.756 0                                  95437499.214 0
  23306810.748                                  
  21834305.552   114740037.135 0                  21834305.578    89407820.609 0
  21834305.518                                  
  23191060.038   121869852.592 0                                  94963502.915 0
  23191059.642                                  
  20926058.841   109967186.966 0                                  85688698.201 0
  20926058.581                                  
  21280414.391   111829316.767 0                                  87139729.984 0
  21280413.250                                  
  25413252.979   133547520.182 0                  25413256.634   104062976.565 0
  25413256.454                                  
  21067637.226   110711201.140 0                  21067637.387    86268452.550 0
  21067637.347                                  
  23735581.054   126880280.049 0                  23735581.563    98684661.448 0
                                                
  20344751.056   108907033.867 0                  20344751.725    84705467.607 0
                                                
  23728756.308   126710204.517 0                  23728757.496    98552370.913 0
                                                
  23765049.570   127082367.836 0                  23765053.429    98841830.259 0
                                                
  20058537.119   107337294.192 0                  20058537.221    83484561.864 0
                                                
  20946473.413   111813710.771 0                  20946473.567    86966222.813 0
                                                
 20  3 17  6 25 45.0000000  0 15G 5G10G13G15G16G20G21G25G29R 5R 7R13
                                R20R21R22
  25197794.797   132415298.391 0                  25197794.612   103180752.781 0
  25197794.492                                  
  23407749.988   123008547.435 0                  23407752.817    95850794.331 0
  23407753.237                                  
  23306849.030   122478311.211 0                                  95437654.633 0
  23306848.703                                  
  21833358.175   114735058.635 0                  21833358.201    89403941.258 0
  21833358.141                                  
  23189911.178   121863815.296 0                                  94958798.527 0
  23189910.782                                  
  20924243.674   109957648.200 0                                  85681265.396 0
  20924243.414                                  
  21280070.641   111827510.347 0                                  87138322.384 0
  21280069.500                                  
  25416581.438   133565011.353 0                  25416585.093   104076606.049 0
  25416584.913                                  
  21069458.438   110720771.674 0                  21069458.599    86275910.110 0
  21069458.559                                  
  23739407.996   126900737.252 0                  23739408.506    98700572.606 0
                                                
  20341915.829   108891856.677 0                  20341916.499    84693663.125 0
                                                
  23728455.142   126708596.307 0                  23728456.330    98551120.083 0
                                                
  23767655.803   127096304.534 0                  23767659.661    98852669.913 0
                                                
  20059057.258   107340077.560 0                  20059057.360    83486726.705 0
                                                
  20944273.859   111801969.400 0                  20944274.013    86957090.636 0
                                                
 20  3 17  6 25 50.0000000  0 15G 5G10G13G15G16G20G21G25G29R 5R 7R13
                                R20R21R22
  25201220.496   132433300.560 0                  25201220.311   103194780.445 0
  25201220.191                                  
  23404784.814   122992965.338 0                  23404787.643    95838652.437 0
  23404788.063                                  
  23306890.010   122478526.564 0                                  95437822.441 0
  23306889.684                                  
  21832413.853   114730096.189 0                  21832413.879    89400074.417 0
  21832413.819                                  
  23188765.284   121857793.582 0                                  94954106.283 0
  23188764.888                                  
  20922430.562   109948120.229 0                                  85673841.003 0
  20922430.301                                  
  21279727.548   111825707.382 0                                  87136917.476 0
  21279726.407                                  
  25419909.138   133582498.533 0                  25419912.793   104090232.423 0
  25419912.613                                  
  21071281.905   110730354.054 0                  21071282.066    86283376.899 0
  21071282.026                                  
  23743236.086   126921200.587 0                  23743236.596    98716488.533 0
                                                
  20339083.622   108876695.649 0                  20339084.291    84681871.215 0
                                                
  23728157.681   126707007.881 0                  23728158.869    98549884.640 0
                                                
  23770263.047   127110246.639 0                  23770266.905    98863513.772 0
                                                
  20059579.292   107342871.073 0                  20059579.394    83488899.437 0
                                                
  20942075.014   111790231.817 0                  20942075.168    86947961.404 0
                                                
 20  3 17  6 25 55.0000000  0 15G 5G10G13G15G16G20G21G25G29R 5R 7R13
                                R20R21R22
  25204646.183   132451302.664 0                  25204645.997   103208808.058 0
  25204645.877                                  
  23401820.834   122977389.521 0                  23401823.663    95826515.437 0
  23401824.083                                  
  23306934.015   122478757.809 0                                  95438002.632 0
  23306933.688                                  
  21831472.577   114725149.752 0                  21831472.603    89396220.050 0
  21831472.543                                  
  23187622.357   121851787.457 0                                  94949426.186 0
  23187621.961                                  
  20920619.494   109938603.003 0                                  85666424.983 0
  20920619.233                                  
  21279385.103   111823907.819 0                                  87135515.219 0
  21279383.962                                  
  25423236.078   133599981.722 0                  25423239.733   104103855.687 0
  25423239.553                                  
  21073107.619   110739948.246 0                  21073107.780    86290852.893 0
  21073107.740                                  
  23747065.318   126941670.025 0                  23747065.827    98732409.207 0
                                                
  20336254.419   108861550.704 0                  20336255.088    84670091.813 0
                                                
  23727863.916   126705439.193 0                  23727865.104    98548664.550 0
                                                
  23772871.302   127124194.151 0                  23772875.160    98874361.837 0
                                                
  20060103.236   107345674.800 0                  20060103.338    83491080.114 0
                                                
  20939876.844   111778497.839 0                  20939876.998    86938834.977 0
                                                
 20  3 17  6 26  0.0000000  0 15G 5G10G13G15G16G20G21G25G29R 5R 7R13
                                R20R21R22
  25208071.787   132469304.464 0                  25208071.594   103222835.474 0
  25208071.474                                  
  23398858.008   122961819.951 0                  23398860.825    95814383.372 0
  23398861.265                                  
  23306980.995   122479004.796 0                                  95438195.106 0
  23306980.668                                  
  21830534.325   114720219.207 0                  21830534.330    89392378.085 0
  21830534.250                                  
  23186482.364   121845796.756 0                                  94944758.119 0
  23186481.955                                  
  20918810.429   109929096.406 0                                  85659017.270 0
  20918810.188                                  
  21279043.271   111822111.479 0                                  87134115.482 0
  21279042.090                                  
  25426562.239   133617460.809 0                  25426565.834   104117475.762 0
  25426565.654                                  
  21074935.543   110749553.983 0                  21074935.728    86298337.882 0
  21074935.688                                  
  23750895.632   126962145.357 0                  23750896.141    98748334.442 0
                                                
  20333428.188   108846421.842 0                  20333428.873    84658324.921 0
                                                
  23727573.834   126703890.100 0                  23727575.013    98547459.660 0
                                                
  23775480.567   127138146.741 0                  23775484.466    98885213.751 0
                                                
  20060629.042   107348488.608 0                  20060629.164    83493268.608 0
                                                
  20937679.348   111766767.524 0                  20937679.477    86929711.384 0
                                                
 20  3 17  6 26  5.0000000  0 15G 5G10G13G15G16G20G21G25G29R 5R 7R13
                                R20R21R22
  25211497.479   132487306.592 0                  25211497.285   103236863.107 0
  25211497.165                                  
  23395896.467   122946256.948 0                  23395899.284    95802256.356 0
  23395899.724                                  
  23307031.095   122479268.072 0                                  95438400.256 0
  23307030.768                                  
  21829599.205   114715305.116 0                  21829599.210    89388548.923 0
  21829599.130                                  
  23185345.418   121839822.064 0                                  94940102.515 0
  23185345.009                                  
  20917003.508   109919600.974 0                                  85651618.232 0
  20917003.268                                  
  21278702.174   111820319.003 0                                  87132718.748 0
  21278700.993                                  
  25429887.701   133634936.235 0                  25429891.297   104131092.977 0
  25429891.117                                  
  21076765.796   110759172.030 0                  21076765.981    86305832.465 0
  21076765.941                                  
  23754727.133   126982626.926 0                  23754727.642    98764264.551 0
                                                
  20330605.050   108831309.365 0                  20330605.735    84646570.771 0
                                                
  23727287.458   126702360.868 0                  23727288.637    98546270.257 0
                                                
  23778090.860   127152105.148 0                  23778094.758    98896070.291 0
                                                
  20061156.835   107351312.932 0                  20061156.956    83495465.304 0
                                                
  20935482.607   111755041.175 0                  20935482.737    86920590.890 0
                                                
 20  3 17  6 26 10.0000000  0 15G 5G10G13G15G16G20G21G25G29R 5R 7R13
                                R20R21R22
  25214923.114   132505308.429 0                  25214922.921   103250890.513 0
  25214922.801                                  
  23392936.092   122930700.077 0                  23392938.909    95790134.119 0
  23392939.349                                  
  23307084.176   122479547.015 0                                  95438617.615 0
  23307083.849                                  
  21828667.109   114710406.922 0                  21828667.114    89384732.148 0
  21828667.034                                  
  23184211.403   121833862.777 0                                  94935458.914 0
  23184210.994                                  
  20915198.602   109910116.128 0                                  85644227.443 0
  20915198.361                                  
  21278361.694   111818529.772 0                                  87131324.541 0
  21278360.513                                  
  25433212.363   133652407.447 0                  25433215.958   104144706.908 0
  25433215.778                                  
  21078598.258   110768801.681 0                  21078598.443    86313336.088 0
  21078598.403                                  
  23758559.747   127003114.448 0                  23758560.256    98780199.290 0
                                                
  20327784.913   108816212.951 0                  20327785.599    84634829.116 0
                                                
  23727004.754   126700851.246 0                  23727005.933    98545096.107 0
                                                
  23780702.143   127166068.853 0                  23780706.042    98906930.950 0
                                                
  20061686.511   107354147.339 0                  20061686.633    83497669.843 0
                                                
  20933286.545   111743318.445 0                  20933286.675    86911473.211 0
                                                
 20  3 17  6 26 15.0000000  0 15G 5G10G13G15G16G20G21G25G29R 5R 7R13
                                R20R21R22
  25218348.731   132523310.168 0                  25218348.538   103264917.842 0
  25218348.418                                  
  23389976.915   122915149.493 0                  23389979.732    95778016.781 0
  23389980.172                                  
  23307140.281   122479841.849 0                                  95438847.355 0
  23307139.954                                  
  21827738.068   114705524.778 0                  21827738.073    89380927.880 0
  21827737.993                                  
  23183080.351   121827919.055 0                                  94930827.443 0
  23183079.942                                  
  20913395.742   109900642.038 0                                  85636845.035 0
  20913395.502                                  
  21278021.856   111816743.910 0                                  87129932.960 0
  21278020.675                                  
  25436536.254   133669874.614 0                  25436539.849   104158317.688 0
  25436539.669                                  
  21080432.957   110778443.089 0                  21080433.142    86320848.874 0
  21080433.102                                  
  23762393.486   127023607.978 0                  23762393.995    98796138.703 0
                                                
  20324967.802   108801132.735 0                  20324968.488    84623100.060 0
                                                
  23726725.752   126699361.392 0                  23726726.932    98543937.332 0
                                                
  23783314.435   127180037.951 0                  23783318.333    98917795.804 0
                                                
  20062218.105   107356992.004 0                  20062218.227    83499882.360 0
                                                
  20931091.188   111731599.481 0                  20931091.318    86902358.461 0
                                                
 20  3 17  6 26 20.0000000  0 15G 5G10G13G15G16G20G21G25G29R 5R 7R13
                                R20R21R22
  25221774.336   132541311.842 0                  25221774.143   103278945.120 0
  25221774.023                                  
  23387018.943   122899605.245 0                  23387021.760    95765904.379 0
  23387022.200                                  
  23307199.418   122480152.619 0                                  95439089.513 0
  23307199.091                                  
  21826812.085   114700658.703 0                  21826812.090    89377136.134 0
  21826812.010                                  
  23181952.277   121821990.988 0                                  94926208.170 0
  23181951.868                                  
  20911594.943   109891178.770 0                                  85629471.060 0
  20911594.702                                  
  21277682.669   111814961.470 0                                  87128544.046 0
  21277681.488                                  
  25439859.378   133687337.746 0                  25439862.973   104171925.324 0
  25439862.793                                  
  21082269.907   110788096.327 0                  21082270.092    86328370.877 0
  21082270.052                                  
  23766228.338   127044107.458 0                  23766228.847    98812082.742 0
                                                
  20322153.712   108786068.690 0                  20322154.397    84611383.580 0
                                                
  23726450.454   126697891.317 0                  23726451.634    98542793.940 0
                                                
  23785927.713   127194012.323 0                  23785931.611    98928664.760 0
                                                
  20062751.611   107359846.903 0                  20062751.733    83502102.837 0
                                                
  20928896.526   111719884.227 0                  20928896.656    86893246.598 0
                                                
 20  3 17  6 26 25.0000000  0 15G 5G10G13G15G16G20G21G25G29R 5R 7R13
                                R20R21R22
  25225199.927   132559313.442 0                  25225199.733   103292972.340 0
  25225199.613                                  
  23384062.179   122884067.349 0                  23384064.996    95753796.928 0
  23384065.436                                  
  23307261.584   122480479.304 0                                  95439344.073 0
  23307261.258                                  
  21825889.161   114695808.705 0                  21825889.166    89373356.915 0
  21825889.086                                  
  23180827.175   121816078.538 0                                  94921601.066 0
  23180826.766                                  
  20909796.199   109881726.307 0                                  85622105.505 0
  20909795.958                                  
  21277344.131   111813182.442 0                                  87127157.790 0
  21277342.950                                  
  25443181.735   133704796.854 0                  25443185.330   104185529.823 0
  25443185.150                                  
  21084109.103   110797761.369 0                  21084109.288    86335902.079 0
  21084109.248                                  
  23770064.309   127064612.921 0                  23770064.817    98828031.436 0
                                                
  20319342.655   108771020.883 0                  20319343.341    84599679.730 0
                                                
  23726178.836   126696440.892 0                  23726180.016    98541665.832 0
                                                
  23788542.013   127207992.161 0                  23788545.912    98939537.967 0
                                                
  20063287.025   107362712.009 0                  20063287.146    83504331.253 0
                                                
  20926702.563   111708172.704 0                  20926702.693    86884137.635 0
                                                
 20  3 17  6 26 30.0000000  0 15G 5G10G13G15G16G20G21G25G29R 5R 7R13
                                R20R21R22
  25228625.561   132577314.143 0                  25228625.457   103306998.568 0
  25228625.357                                  
  23381106.556   122868535.612 0                  23381109.387    95741694.307 0
  23381109.807                                  
  23307326.744   122480821.752 0                                  95439610.942 0
  23307326.409                                  
  21824969.236   114690974.670 0                  21824969.248    89369590.169 0
  21824969.168                                  
  23179705.011   121810181.552 0                                  94917006.032 0
  23179704.581                                  
  20907999.462   109872284.453 0                                  85614748.235 0
  20907999.164                                  
  21277006.195   111811406.674 0                                  87125774.111 0
  21277005.022                                  
  25446503.318   133722252.204 0                  25446506.833   104199131.419 0
  25446506.653                                  
  21085950.492   110807438.002 0                  21085950.673    86343442.313 0
  21085950.633                                  
  23773901.369   127085124.222 0                  23773901.777    98843984.683 0
                                                
  20316534.621   108755989.278 0                  20316535.299    84587988.515 0
                                                
  23725910.898   126695010.045 0                  23725912.102    98540552.957 0
                                                
  23791157.309   127221977.157 0                  23791161.198    98950415.160 0
                                                
  20063824.341   107365587.284 0                  20063824.443    83506567.592 0
                                                
  20924509.298   111696464.989 0                  20924509.436    86875031.667 0
                                                
 20  3 17  6 26 35.0000000  0 15G 5G10G13G15G16G20G21G25G29R 5R 7R13
                                R20R21R22
  25232051.141   132595315.684 0                  25232051.037   103321025.743 0
  25232050.937                                  
  23378152.238   122853010.567 0                  23378155.070    95729596.870 0
  23378155.490                                  
  23307395.009   122481180.488 0                                  95439890.477 0
  23307394.674                                  
  21824052.483   114686157.101 0                  21824052.495    89365836.220 0
  21824052.415                                  
  23178585.898   121804300.573 0                                  94912423.451 0
  23178585.468                                  
  20906204.853   109862853.723 0                                  85607399.614 0
  20906204.556                                  
  21276668.990   111809634.647 0                                  87124393.310 0
  21276667.816                                  
  25449824.164   133739703.366 0                  25449827.679   104212729.727 0
  25449827.499                                  
  21087794.214   110817126.824 0                  21087794.395    86350992.044 0
  21087794.355                                  
  23777739.578   127105641.652 0                  23777739.986    98859942.684 0
                                                
  20313729.654   108740974.072 0                  20313730.332    84576310.020 0
                                                
  23725646.673   126693599.099 0                  23725647.877    98539455.555 0
                                                
  23793773.635   127235967.829 0                  23793777.524    98961296.794 0
                                                
  20064363.588   107368472.906 0                  20064363.690    83508811.965 0
                                                
  20922316.777   111684761.164 0                  20922316.915    86865928.691 0
                                                
 20  3 17  6 26 40.0000000  0 15G 5G10G13G15G16G20G21G25G29R 5R 7R13
                                R20R21R22
  25235476.659   132613316.905 0                  25235476.555   103335052.668 0
  25235476.455                                  
  23375199.089   122837491.664 0                  23375201.920    95717504.218 0
  23375202.340                                  
  23307466.253   122481554.875 0                                  95440182.207 0
  23307465.918                                  
  21823138.756   114681355.433 0                  21823138.768    89362094.660 0
  21823138.688                                  
  23177469.754   121798435.194 0                                  94907853.026 0
  23177469.324                                  
  20904412.269   109853433.626 0                                  85600059.280 0
  20904411.971                                  
  21276332.395   111807865.832 0                                  87123015.013 0
  21276331.222                                  
  25453144.197   133757150.260 0                  25453147.712   104226324.710 0
  25453147.532                                  
  21089640.148   110826827.274 0                  21089640.329    86358550.837 0
  21089640.289                                  
  23781578.857   127126164.798 0                  23781579.265    98875905.131 0
                                                
  20310927.704   108725975.011 0                  20310928.381    84564644.084 0
                                                
  23725386.130   126692207.811 0                  23725387.334    98538373.442 0
                                                
  23796390.945   127249963.761 0                  23796394.834    98972182.519 0
                                                
  20064904.756   107371368.806 0                  20064904.858    83511064.331 0
                                                
  20920124.946   111673061.018 0                  20920125.084    86856828.578 0
                                                
 20  3 17  6 26 45.0000000  0 15G 5G10G13G15G16G20G21G25G29R 5R 7R13
                                R20R21R22
  25238902.153   132631317.997 0                  25238902.049   103349079.493 0
  25238901.949                                  
  23372247.156   122821979.151 0                  23372249.987    95705416.546 0
  23372250.407                                  
  23307540.529   122481945.199 0                                  95440486.355 0
  23307540.194                                  
  21822228.102   114676569.914 0                  21822228.114    89358365.684 0
  21822228.034                                  
  23176356.581   121792585.431 0                                  94903294.769 0
  23176356.151                                  
  20902621.740   109844024.335 0                                  85592727.364 0
  20902621.443                                  
  21275996.450   111806100.428 0                                  87121639.373 0
  21275995.276                                  
  25456463.457   133774593.087 0                  25456466.972   104239916.523 0
  25456466.792                                  
  21091488.323   110836539.497 0                  21091488.504    86366118.803 0
  21091488.464                                  
  23785419.252   127146693.909 0                  23785419.660    98891872.217 0
                                                
  20308128.816   108710992.347 0                  20308129.494    84552990.901 0
                                                
  23725129.288   126690836.287 0                  23725130.491    98537306.701 0
                                                
  23799009.247   127263964.997 0                  23799013.136    98983072.369 0
                                                
  20065447.844   107374274.978 0                  20065447.946    83513324.687 0
                                                
  20917933.833   111661364.710 0                  20917933.971    86847731.449 0
                                                
 20  3 17  6 26 50.0000000  0 15G 5G10G13G15G16G20G21G25G29R 5R 7R13
                                R20R21R22
  25242327.619   132649318.940 0                  25242327.515   103363106.202 0
  25242327.415                                  
  23369296.438   122806473.024 0                  23369299.269    95693333.849 0
  23369299.689                                  
  23307617.840   122482351.472 0                                  95440802.932 0
  23307617.505                                  
  21821320.522   114671800.552 0                  21821320.535    89354649.298 0
  21821320.455                                  
  23175246.392   121786751.352 0                                  94898748.733 0
  23175245.963                                  
  20900833.274   109834625.883 0                                  85585403.895 0
  20900832.977                                  
  21275661.160   111804338.466 0                                  87120266.416 0
  21275659.986                                  
  25459781.938   133792031.825 0                  25459785.454   104253505.150 0
  25459785.274                                  
  21093338.743   110846263.521 0                  21093338.924    86373695.964 0
  21093338.884                                  
  23789260.751   127167228.924 0                  23789261.159    98907843.895 0
                                                
  20305332.969   108696025.957 0                  20305333.646    84541350.376 0
                                                
  23724876.146   126689484.526 0                  23724877.350    98536255.332 0
                                                
  23801628.576   127277971.726 0                  23801632.465    98993966.492 0
                                                
  20065992.830   107377191.310 0                  20065992.933    83515592.945 0
                                                
  20915743.417   111649672.121 0                  20915743.555    86838637.213 0
                                                
 20  3 17  6 26 55.0000000  0 15G 5G10G13G15G16G20G21G25G29R 5R 7R13
                                R20R21R22
  25245753.046   132667319.685 0                  25245752.943   103377132.756 0
  25245752.843                                  
  23366346.927   122790973.237 0                  23366349.758    95681256.093 0
  23366350.178                                  
  23307698.183   122482773.677 0                                  95441131.923 0
  23307697.848                                  
  21820416.015   114667047.334 0                  21820416.027    89350945.491 0
  21820415.947                                  
  23174139.179   121780932.908 0                                  94894214.881 0
  23174138.749                                  
  20899046.859   109825238.210 0                                  85578088.825 0
  20899046.562                                  
  21275326.509   111802579.862 0                                  87118896.075 0
  21275325.335                                  
  25463099.634   133809466.432 0                  25463103.149   104267090.558 0
  25463102.969                                  
  21095191.402   110855999.311 0                  21095191.583    86381282.294 0
  21095191.543                                  
  23793103.349   127187769.814 0                  23793103.757    98923820.143 0
                                                
  20302540.166   108681075.865 0                  20302540.844    84529722.527 0
                                                
  23724626.689   126688152.442 0                  23724627.893    98535219.266 0
                                                
  23804248.905   127291983.800 0                  23804252.793    99004864.771 0
                                                
  20066539.743   107380117.949 0                  20066539.845    83517869.220 0
                                                
  20913553.727   111637983.408 0                  20913553.865    86829545.992 0
                                                
 20  3 17  6 27  0.0000000  0 15G 5G10G13G15G16G20G21G25G29R 5R 7R13
                                R20R21R22
  25249178.291   132685320.486 0                  25249178.165   103391159.603 0
  25249178.045                                  
  23363398.591   122775479.691 0                  23363401.315    95669183.216 0
  23363401.755                                  
  23307781.507   122483211.650 0                                  95441473.192 0
  23307781.211                                  
  21819514.527   114662310.090 0                  21819514.560    89347254.124 0
  21819514.480                                  
  23173034.934   121775129.992 0                                  94889693.103 0
  23173034.509                                  
  20897262.443   109815861.205 0                                  85570782.076 0
  20897262.121                                  
  21274992.461   111800824.465 0                                  87117528.200 0
  21274991.291                                  
  25466416.454   133826897.146 0                  25466420.058   104280673.139 0
  25466419.858                                  
  21097046.278   110865746.607 0                  21097046.448    86388877.546 0
  21097046.408                                  
  23796947.008   127208316.421 0                  23796947.433    98939800.875 0
                                                
  20299750.410   108666141.918 0                  20299751.051    84518107.253 0
                                                
  23724380.942   126686839.909 0                  23724382.121    98534198.376 0
                                                
  23806870.260   127306000.967 0                  23806874.173    99015766.945 0
                                                
  20067088.616   107383054.783 0                  20067088.750    83520153.410 0
                                                
  20911364.754   111626298.397 0                  20911364.900    86820457.652 0
                                                
 20  3 17  6 27  5.0000000  0 15G 5G10G13G15G16G20G21G25G29R 5R 7R13
                                R20R21R22
  25252603.668   132703320.965 0                  25252603.542   103405185.951 0
  25252603.422                                  
  23360451.533   122759992.793 0                  23360454.256    95657115.504 0
  23360454.696                                  
  23307867.944   122483665.881 0                                  95441827.138 0
  23307867.649                                  
  21818616.194   114657589.318 0                  21818616.227    89343575.601 0
  21818616.147                                  
  23171933.709   121769343.012 0                                  94885183.768 0
  23171933.283                                  
  20895480.168   109806495.288 0                                  85563483.958 0
  20895479.846                                  
  21274659.130   111799072.798 0                                  87116163.265 0
  21274657.960                                  
  25469732.600   133844323.615 0                  25469736.205   104294252.207 0
  25469736.005                                  
  21098903.444   110875506.080 0                  21098903.614    86396482.330 0
  21098903.574                                  
  23800791.788   127228868.976 0                  23800792.213    98955786.195 0
                                                
  20296963.744   108651224.674 0                  20296964.384    84506504.953 0
                                                
  23724138.900   126685547.420 0                  23724140.079    98533193.107 0
                                                
  23809492.628   127320023.950 0                  23809496.541    99026673.710 0
                                                
  20067639.389   107386002.082 0                  20067639.523    83522445.753 0
                                                
  20909176.510   111614617.398 0                  20909176.655    86811372.431 0
                                                
 20  3 17  6 27 10.0000000  0 15G 5G10G13G15G16G20G21G25G29R 5R 7R13
                                R20R21R22
  25256028.995   132721321.178 0                  25256028.869   103419212.091 0
  25256028.749                                  
  23357505.674   122744512.203 0                  23357508.398    95645052.706 0
  23357508.838                                  
  23307957.400   122484135.976 0                                  95442193.446 0
  23307957.105                                  
  21817720.920   114652884.619 0                  21817720.952    89339909.602 0
  21817720.872                                  
  23170835.437   121763571.556 0                                  94880686.529 0
  23170835.011                                  
  20893699.936   109797140.104 0                                  85556194.205 0
  20893699.614                                  
  21274326.434   111797324.468 0                                  87114800.930 0
  21274325.264                                  
  25473047.943   133861745.859 0                  25473051.548   104307827.980 0
  25473051.348                                  
  21100762.835   110885277.247 0                  21100763.005    86404096.226 0
  21100762.965                                  
  23804637.612   127249427.106 0                  23804638.036    98971775.852 0
                                                
  20294180.081   108636323.509 0                  20294180.721    84494915.157 0
                                                
  23723900.495   126684274.349 0                  23723901.674    98532202.941 0
                                                
  23812115.944   127334051.997 0                  23812119.857    99037584.413 0
                                                
  20068192.037   107388959.414 0                  20068192.171    83524745.900 0
                                                
  20906988.930   111602939.949 0                  20906989.075    86802289.970 0
                                                
 20  3 17  6 27 15.0000000  0 15G 5G10G13G15G16G20G21G25G29R 5R 7R13
                                R20R21R22
  25259454.297   132739321.264 0                  25259454.171   103433238.131 0
  25259454.051                                  
  23354561.037   122729038.031 0                  23354563.761    95632994.910 0
  23354564.201                                  
  23308049.894   122484622.033 0                                  95442572.192 0
  23308049.598                                  
  21816828.731   114648196.136 0                  21816828.764    89336256.238 0
  21816828.684                                  
  23169740.146   121757815.764 0                                  94876201.497 0
  23169739.720                                  
  20891921.769   109787795.774 0                                  85548912.909 0
  20891921.447                                  
  21273994.392   111795579.580 0                                  87113441.276 0
  21273993.223                                  
  25476362.503   133879163.990 0                  25476366.108   104321400.551 0
  25476365.908                                  
  21102624.473   110895060.221 0                  21102624.643    86411719.323 0
  21102624.603                                  
  23808484.573   127269991.317 0                  23808484.997    98987770.238 0
                                                
  20291399.520   108621438.949 0                  20291400.161    84483338.278 0
                                                
  23723665.811   126683021.153 0                  23723666.991    98531228.233 0
                                                
  23814740.332   127348085.780 0                  23814744.245    99048499.578 0
                                                
  20068746.660   107391927.311 0                  20068746.794    83527054.264 0
                                                
  20904802.133   111591266.676 0                  20904802.278    86793210.758 0
                                                
 20  3 17  6 27 20.0000000  0 15G 5G10G13G15G16G20G21G25G29R 5R 7R13
                                R20R21R22
  25262879.544   132757321.055 0                  25262879.417   103447263.943 0
  25262879.297                                  
  23351617.599   122713570.160 0                  23351620.323    95620942.023 0
  23351620.763                                  
  23308145.401   122485123.927 0                                  95442963.278 0
  23308145.106                                  
  21815939.600   114643523.718 0                  21815939.632    89332615.393 0
  21815939.552                                  
  23168647.815   121752075.526 0                                  94871728.584 0
  23168647.390                                  
  20890145.639   109778462.152 0                                  85541639.957 0
  20890145.318                                  
  21273662.978   111793837.987 0                                  87112084.191 0
  21273661.809                                  
  25479676.249   133896577.843 0                  25479679.854   104334969.787 0
  25479679.654                                  
  21104488.328   110904854.843 0                  21104488.498    86419351.496 0
  21104488.458                                  
  23812332.568   127290561.057 0                  23812332.993    99003768.925 0
                                                
  20288621.990   108606570.616 0                  20288622.631    84471774.019 0
                                                
  23723434.812   126681787.628 0                  23723435.991    98530268.825 0
                                                
  23817365.669   127362124.636 0                  23817369.582    99059418.688 0
                                                
  20069303.185   107394905.392 0                  20069303.319    83529370.549 0
                                                
  20902616.017   111579597.045 0                  20902616.163    86784134.378 0
                                                
 20  3 17  6 27 25.0000000  0 15G 5G10G13G15G16G20G21G25G29R 5R 7R13
                                R20R21R22
  25266304.777   132775320.776 0                  25266304.650   103461289.699 0
  25266304.530                                  
  23348675.405   122698108.826 0                  23348678.129    95608894.230 0
  23348678.569                                  
  23308243.962   122485641.871 0                                  95443366.871 0
  23308243.667                                  
  21815053.575   114638867.626 0                  21815053.607    89328987.270 0
  21815053.527                                  
  23167558.495   121746351.109 0                                  94867268.000 0
  23167558.069                                  
  20888371.597   109769139.494 0                                  85534375.548 0
  20888371.275                                  
  21273332.233   111792099.908 0                                  87110729.844 0
  21273331.064                                  
  25482989.217   133913987.605 0                  25482992.821   104348535.835 0
  25482992.621                                  
  21106354.448   110914661.371 0                  21106354.618    86426992.946 0
  21106354.578                                  
  23816181.680   127311136.767 0                  23816182.105    99019772.255 0
                                                
  20285847.541   108591718.770 0                  20285848.182    84460222.583 0
                                                
  23723207.536   126680573.988 0                  23723208.715    98529324.882 0
                                                
  23819992.044   127376169.045 0                  23819995.957    99070342.116 0
                                                
  20069861.661   107397893.909 0                  20069861.795    83531694.951 0
                                                
  20900430.668   111567931.501 0                  20900430.814    86775061.178 0
                                                
 20  3 17  6 27 30.0000000  0 15G 5G10G13G15G16G20G21G25G29R 5R 7R13
                                R20R21R22
  25269730.007   132793319.411 0                  25269729.946   103475314.332 0
  25269729.826                                  
  23345734.372   122682653.555 0                  23345737.091    95596851.155 0
  23345737.531                                  
  23308345.500   122486175.388 0                                  95443782.581 0
  23308345.229                                  
  21814170.572   114634227.422 0                  21814170.605    89325371.536 0
  21814170.545                                  
  23166472.110   121740642.010 0                                  94862819.314 0
  23166471.657                                  
  20886599.560   109759827.346 0                                  85527119.310 0
  20886599.227                                  
  21273002.078   111790364.938 0                                  87109377.937 0
  21273000.908                                  
  25486301.332   133931392.730 0                  25486304.986   104362098.222 0
  25486304.786                                  
  21108222.758   110924479.337 0                  21108222.932    86434643.284 0
  21108222.892                                  
  23820031.802   127331717.946 0                  23820032.223    99035779.864 0
                                                
  20283076.153   108576883.306 0                  20283076.815    84448683.886 0
                                                
  23722983.932   126679379.751 0                  23722985.070    98528395.992 0
                                                
  23822619.401   127390218.480 0                  23822623.307    99081269.390 0
                                                
  20070422.024   107400892.519 0                  20070422.178    83534027.202 0
                                                
  20898245.986   111556269.550 0                  20898246.136    86765990.776 0
                                                
 20  3 17  6 27 35.0000000  0 15G 5G10G13G15G16G20G21G25G29R 5R 7R13
                                R20R21R22
  25273155.202   132811318.933 0                  25273155.141   103489339.933 0
  25273155.021                                  
  23342794.660   122667205.263 0                  23342797.379    95584813.525 0
  23342797.819                                  
  23308450.159   122486725.375 0                                  95444211.142 0
  23308449.888                                  
  21813290.751   114629603.931 0                  21813290.784    89321768.815 0
  21813290.724                                  
  23165388.799   121734949.176 0                                  94858383.340 0
  23165388.346                                  
  20884829.679   109750526.559 0                                  85519871.944 0
  20884829.346                                  
  21272672.667   111788633.869 0                                  87108029.052 0
  21272671.497                                  
  25489612.753   133948794.363 0                  25489616.407   104375657.936 0
  25489616.207                                  
  21110093.396   110934309.606 0                  21110093.570    86442303.234 0
  21110093.530                                  
  23823883.044   127352305.040 0                  23823883.465    99051792.048 0
                                                
  20280307.852   108562064.373 0                  20280308.514    84437158.049 0
                                                
  23722764.038   126678205.533 0                  23722765.177    98527482.711 0
                                                
  23825247.780   127404273.606 0                  23825251.687    99092201.155 0
                                                
  20070984.344   107403901.604 0                  20070984.498    83536367.602 0
                                                
  20896062.069   111544611.652 0                  20896062.219    86756923.522 0
                                                
 20  3 17  6 27 40.0000000  0 15G 5G10G13G15G16G20G21G25G29R 5R 7R13
                                R20R21R22
  25276580.295   132829317.917 0                  25276580.234   103503365.115 0
  25276580.114                                  
  23339856.117   122651763.119 0                  23339858.837    95572780.685 0
  23339859.277                                  
  23308557.804   122487291.050 0                                  95444651.928 0
  23308557.533                                  
  21812413.957   114624996.346 0                  21812413.989    89318178.489 0
  21812413.929                                  
  23164308.416   121729271.724 0                                  94853959.351 0
  23164307.963                                  
  20883061.810   109741236.345 0                                  85512632.816 0
  20883061.477                                  
  21272343.850   111786905.926 0                                  87106682.603 0
  21272342.680                                  
  25492923.315   133966191.485 0                  25492926.969   104389214.135 0
  25492926.769                                  
  21111966.222   110944151.373 0                  21111966.396    86449972.143 0
  21111966.356                                  
  23827735.333   127372897.729 0                  23827735.753    99067808.585 0
                                                
  20277542.605   108547261.791 0                  20277543.267    84425644.930 0
                                                
  23722547.820   126677050.938 0                  23722548.959    98526584.693 0
                                                
  23827877.154   127418334.048 0                  23827881.060    99103137.054 0
                                                
  20071548.589   107406920.994 0                  20071548.743    83538716.016 0
                                                
  20893878.886   111532957.674 0                  20893879.037    86747859.317 0
                                                
 20  3 17  6 27 45.0000000  0 15G 5G10G13G15G16G20G21G25G29R 5R 7R13
                                R20R21R22
  25280005.343   132847316.670 0                  25280005.283   103517390.118 0
  25280005.163                                  
  23336918.804   122636327.433 0                  23336921.523    95560752.878 0
  23336921.963                                  
  23308668.494   122487872.731 0                                  95445105.186 0
  23308668.223                                  
  21811540.257   114620405.021 0                  21811540.289    89314600.834 0
  21811540.229                                  
  23163231.025   121723609.996 0                                  94849547.615 0
  23163230.572                                  
  20881296.007   109731956.989 0                                  85505402.149 0
  20881295.674                                  
  21272015.694   111785181.456 0                                  87105338.860 0
  21272014.525                                  
  25496233.076   133983584.400 0                  25496236.731   104402767.056 0
  25496236.531                                  
  21113841.287   110954004.908 0                  21113841.461    86457650.223 0
  21113841.421                                  
  23831588.702   127393496.200 0                  23831589.123    99083829.617 0
                                                
  20274780.446   108532475.735 0                  20274781.108    84414144.664 0
                                                
  23722335.282   126675915.999 0                  23722336.421    98525701.962 0
                                                
  23830507.513   127432399.761 0                  23830511.420    99114077.053 0
                                                
  20072114.761   107409950.693 0                  20072114.915    83541072.448 0
                                                
  20891696.420   111521307.519 0                  20891696.570    86738798.085 0
                                                
 20  3 17  6 27 50.0000000  0 15G 5G10G13G15G16G20G21G25G29R 5R 7R13
                                R20R21R22
  25283430.345   132865315.173 0                  25283430.284   103531414.926 0
  25283430.164                                  
  23333982.713   122620898.171 0                  23333985.432    95548730.076 0
  23333985.872                                  
  23308782.216   122488470.347 0                                  95445570.861 0
  23308781.945                                  
  21810669.641   114615829.902 0                  21810669.673    89311035.806 0
  21810669.613                                  
  23162156.617   121717963.944 0                                  94845148.094 0
  23162156.164                                  
  20879532.257   109722688.420 0                                  85498179.888 0
  20879531.924                                  
  21271688.190   111783460.407 0                                  87103997.782 0
  21271687.020                                  
  25499542.032   134000973.077 0                  25499545.686   104416316.674 0
  25499545.486                                  
  21115718.576   110963870.125 0                  21115718.750    86465337.405 0
  21115718.710                                  
  23835443.116   127414100.251 0                  23835443.537    99099854.990 0
                                                
  20272021.381   108517706.243 0                  20272022.042    84402657.281 0
                                                
  23722126.435   126674800.766 0                  23722127.574    98524834.559 0
                                                
  23833138.898   127446470.959 0                  23833142.805    99125021.318 0
                                                
  20072682.868   107412990.749 0                  20072683.022    83543436.937 0
                                                
  20889514.695   111509661.324 0                  20889514.845    86729739.934 0
                                                
 20  3 17  6 27 55.0000000  0 15G 5G10G13G15G16G20G21G25G29R 5R 7R13
                                R20R21R22
  25286855.283   132883313.345 0                  25286855.222   103545439.475 0
  25286855.102                                  
  23331047.836   122605475.286 0                  23331050.555    95536712.244 0
  23331050.995                                  
  23308898.967   122489083.878 0                                  95446048.937 0
  23308898.696                                  
  21809802.102   114611270.953 0                  21809802.134    89307483.378 0
  21809802.074                                  
  23161085.187   121712333.540 0                                  94840760.767 0
  23161084.734                                  
  20877770.560   109713430.642 0                                  85490966.034 0
  20877770.228                                  
  21271361.322   111781742.704 0                                  87102659.312 0
  21271360.152                                  
  25502850.164   134018357.431 0                  25502853.818   104429862.924 0
  25502853.618                                  
  21117598.094   110973747.062 0                  21117598.268    86473033.719 0
  21117598.228                                  
  23839298.559   127434709.800 0                  23839298.979    99115884.640 0
                                                
  20269265.376   108502953.135 0                  20269266.038    84391182.642 0
                                                
  23721921.262   126673705.154 0                  23721922.401    98523982.416 0
                                                
  23835771.256   127460547.362 0                  23835775.163    99135969.631 0
                                                
  20073252.896   107416041.083 0                  20073253.050    83545809.419 0
                                                
  20887333.675   111498018.894 0                  20887333.826    86720684.710 0
                                                
 20  3 17  6 28  0.0000000  0 15G 5G10G13G15G16G20G21G25G29R 5R 7R13
                                R20R21R22
  25290280.102   132901311.492 0                  25290280.025   103559464.156 0
  25290279.905                                  
  23328114.181   122590058.847 0                  23328116.874    95524699.453 0
  23328117.294                                  
  23309018.747   122489713.394 0                                  95446539.477 0
  23309018.492                                  
  21808937.642   114606728.258 0                  21808937.690    89303943.624 0
  21808937.630                                  
  23160016.763   121706718.859 0                                  94836385.684 0
  23160016.281                                  
  20876010.951   109704183.759 0                                  85483760.681 0
  20876010.650                                  
  21271035.094   111780028.366 0                                  87101323.448 0
  21271033.924                                  
  25506157.479   134035737.711 0                  25506161.060   104443406.055 0
  25506160.860                                  
  21119479.857   110983635.660 0                  21119480.059    86480739.079 0
  21119480.019                                  
  23843155.091   127455325.245 0                  23843155.527    99131918.868 0
                                                
  20266512.491   108488216.689 0                  20266513.128    84379720.946 0
                                                
  23721719.784   126672629.422 0                  23721721.046    98523145.736 0
                                                
  23838404.727   127474628.940 0                  23838408.721    99146921.748 0
                                                
  20073824.885   107419101.907 0                  20073825.039    83548190.034 0
                                                
  20885153.429   111486380.516 0                  20885153.611    86711632.615 0
                                                
 20  3 17  6 28  5.0000000  0 15G 5G10G13G15G16G20G21G25G29R 5R 7R13
                                R20R21R22
  25293704.958   132919309.227 0                  25293704.880   103573488.365 0
  25293704.760                                  
  23325181.783   122574648.989 0                  23325184.475    95512691.771 0
  23325184.895                                  
  23309141.593   122490358.952 0                                  95447042.510 0
  23309141.338                                  
  21808076.300   114602201.872 0                  21808076.348    89300416.570 0
  21808076.288                                  
  23158951.341   121701120.029 0                                  94832022.959 0
  23158950.859                                  
  20874253.407   109694947.800 0                                  85476563.830 0
  20874253.105                                  
  21270709.536   111778317.545 0                                  87099990.341 0
  21270708.366                                  
  25509464.011   134053113.650 0                  25509467.591   104456945.748 0
  25509467.391                                  
  21121363.864   110993536.187 0                  21121364.066    86488453.775 0
  21121364.026                                  
  23847012.656   127475946.145 0                  23847013.093    99147957.346 0
                                                
  20263762.675   108473496.708 0                  20263763.312    84368272.073 0
                                                
  23721522.014   126671573.345 0                  23721523.277    98522324.343 0
                                                
  23841039.122   127488716.233 0                  23841043.116    99157878.531 0
                                                
  20074398.799   107422173.039 0                  20074398.954    83550578.692 0
                                                
  20882973.905   111474746.068 0                  20882974.087    86702583.601 0
                                                
 20  3 17  6 28 10.0000000  0 15G 5G10G13G15G16G20G21G25G29R 5R 7R13
                                R20R21R22
  25297129.751   132937306.637 0                  25297129.673   103587512.321 0
  25297129.553                                  
  23322250.610   122559245.570 0                  23322253.302    95500689.107 0
  23322253.722                                  
  23309267.464   122491020.410 0                                  95447557.932 0
  23309267.209                                  
  21807218.040   114597691.688 0                  21807218.089    89296902.142 0
  21807218.029                                  
  23157888.901   121695536.871 0                                  94827672.446 0
  23157888.420                                  
  20872497.923   109685722.670 0                                  85469375.417 0
  20872497.622                                  
  21270384.622   111776610.113 0                                  87098659.874 0
  21270383.452                                  
  25512769.733   134070485.340 0                  25512773.314   104470482.130 0
  25512773.114                                  
  21123250.100   111003448.424 0                  21123250.303    86496177.596 0
  21123250.263                                  
  23850871.257   127496572.576 0                  23850871.693    99164000.125 0
                                                
  20261015.964   108458793.352 0                  20261016.601    84356836.129 0
                                                
  23721327.931   126670536.947 0                  23721329.193    98521518.256 0
                                                
  23843674.498   127502808.771 0                  23843678.492    99168839.394 0
                                                
  20074974.641   107425254.488 0                  20074974.796    83552975.374 0
                                                
  20880795.117   111463115.551 0                  20880795.299    86693537.643 0
                                                
 20  3 17  6 28 15.0000000  0 15G 5G10G13G15G16G20G21G25G29R 5R 7R13
                                R20R21R22
  25300554.477   132955303.693 0                  25300554.399   103601536.001 0
  25300554.279                                  
  23319320.657   122543848.566 0                  23319323.350    95488691.441 0
  23319323.770                                  
  23309396.362   122491697.772 0                                  95448085.746 0
  23309396.107                                  
  21806362.868   114593197.726 0                  21806362.916    89293400.353 0
  21806362.856                                  
  23156829.447   121689969.401 0                                  94823334.158 0
  23156828.965                                  
  20870744.486   109676508.300 0                                  85462195.388 0
  20870744.185                                  
  21270060.345   111774906.027 0                                  87097332.015 0
  21270059.175                                  
  25516074.627   134087852.676 0                  25516078.208   104484015.119 0
  25516078.008                                  
  21125138.562   111013372.358 0                  21125138.764    86503910.532 0
  21125138.724                                  
  23854730.916   127517204.668 0                  23854731.353    99180047.308 0
                                                
  20258272.308   108444106.344 0                  20258272.945    84345412.901 0
                                                
  23721137.492   126669520.016 0                  23721138.755    98520727.309 0
                                                
  23846310.870   127516906.639 0                  23846314.864    99179804.403 0
                                                
  20075552.391   107428346.140 0                  20075552.545    83555379.993 0
                                                
  20878617.053   111451488.897 0                  20878617.235    86684494.690 0
                                                
 20  3 17  6 28 20.0000000  0 15G 5G10G13G15G16G20G21G25G29R 5R 7R13
                                R20R21R22
  25303979.151   132973300.479 0                  25303979.074   103615559.471 0
  25303978.954                                  
  23316391.946   122528458.087 0                  23316394.639    95476698.860 0
  23316395.059                                  
  23309528.304   122492391.133 0                                  95448626.027 0
  23309528.049                                  
  21805510.797   114588720.065 0                  21805510.845    89289911.267 0
  21805510.785                                  
  23155772.992   121684417.696 0                                  94819008.154 0
  23155772.511                                  
  20868993.122   109667304.816 0                                  85455023.842 0
  20868992.820                                  
  21269736.723   111773205.382 0                                  87096006.837 0
  21269735.554                                  
  25519378.707   134105215.730 0                  25519382.287   104497544.772 0
  25519382.087                                  
  21127029.266   111023308.072 0                  21127029.468    86511652.646 0
  21127029.428                                  
  23858591.620   127537842.340 0                  23858592.056    99196098.831 0
                                                
  20255531.804   108429436.215 0                  20255532.442    84334002.800 0
                                                
  23720950.794   126668523.060 0                  23720952.057    98519951.899 0
                                                
  23848948.299   127531010.157 0                  23848952.293    99190773.806 0
                                                
  20076132.144   107431448.517 0                  20076132.298    83557792.952 0
                                                
  20876439.784   111439866.489 0                  20876439.966    86675455.039 0
                                                
 20  3 17  6 28 25.0000000  0 15G 5G10G13G15G16G20G21G25G29R 5R 7R13
                                R20R21R22
  25307403.797   132991297.115 0                  25307403.720   103629582.824 0
  25307403.600                                  
  23313464.495   122513074.224 0                  23313467.187    95464711.435 0
  23313467.607                                  
  23309663.307   122493100.579 0                                  95449178.843 0
  23309663.052                                  
  21804661.854   114584258.840 0                  21804661.902    89286434.987 0
  21804661.842                                  
  23154719.555   121678881.844 0                                  94814694.503 0
  23154719.074                                  
  20867243.849   109658112.327 0                                  85447860.864 0
  20867243.548                                  
  21269413.772   111771508.262 0                                  87094684.406 0
  21269412.602                                  
  25522681.995   134122574.629 0                  25522685.576   104511071.187 0
  25522685.376                                  
  21128922.222   111033255.623 0                  21128922.424    86519403.985 0
  21128922.384                                  
  23862453.332   127558485.404 0                  23862453.768    99212154.547 0
                                                
  20252794.357   108414782.445 0                  20252794.994    84322605.423 0
                                                
  23720767.751   126667545.620 0                  23720769.014    98519191.668 0
                                                
  23851586.673   127545118.726 0                  23851590.667    99201747.138 0
                                                
  20076713.796   107434561.056 0                  20076713.951    83560213.816 0
                                                
  20874263.207   111428247.770 0                  20874263.388    86666418.258 0
                                                
 20  3 17  6 28 30.0000000  0 15G 5G10G13G15G16G20G21G25G29R 5R 7R13
                                R20R21R22
  25310828.313   133009293.896 0                  25310828.225   103643606.506 0
  25310828.105                                  
  23310538.253   122497696.781 0                  23310540.907    95452729.046 0
  23310541.327                                  
  23309801.343   122493825.857 0                                  95449744.011 0
  23309801.048                                  
  21803815.999   114579813.735 0                  21803816.047    89282971.286 0
  21803815.987                                  
  23153669.100   121673361.586 0                                  94810393.012 0
  23153668.630                                  
  20865496.611   109648930.561 0                                  85440706.267 0
  20865496.361                                  
  21269091.454   111769814.369 0                                  87093364.500 0
  21269090.304                                  
  25525984.459   134139929.180 0                  25525988.140   104524594.227 0
  25525987.940                                  
  21130817.409   111043214.718 0                  21130817.655    86527164.308 0
  21130817.595                                  
  23866316.100   127579134.112 0                  23866316.536    99228214.604 0
                                                
  20250059.991   108400145.264 0                  20250060.596    84311220.917 0
                                                
  23720588.420   126666587.733 0                  23720589.632    98518446.503 0
                                                
  23854226.128   127559232.567 0                  23854230.174    99212724.397 0
                                                
  20077297.375   107437683.841 0                  20077297.533    83562642.575 0
                                                
  20872087.354   111416633.056 0                  20872087.548    86657384.551 0
                                                
 20  3 17  6 28 35.0000000  0 15G 5G10G13G15G16G20G21G25G29R 5R 7R13
                                R20R21R22
  25314252.811   133027289.755 0                  25314252.723   103657629.253 0
  25314252.603                                  
  23307613.251   122482325.792 0                  23307615.905    95440751.653 0
  23307616.325                                  
  23309942.405   122494567.144 0                                  95450321.637 0
  23309942.110                                  
  21802973.231   114575384.960 0                  21802973.279    89279520.292 0
  21802973.219                                  
  23152621.626   121667857.078 0                                  94806103.784 0
  23152621.157                                  
  20863751.453   109639759.691 0                                  85433560.135 0
  20863751.203                                  
  21268769.778   111768123.953 0                                  87092047.292 0
  21268768.628                                  
  25529286.080   134157279.318 0                  25529289.761   104538113.815 0
  25529289.561                                  
  21132714.806   111053185.611 0                  21132715.053    86534933.835 0
  21132714.993                                  
  23870179.907   127599788.375 0                  23870180.343    99244279.031 0
                                                
  20247328.794   108385524.950 0                  20247329.398    84299849.562 0
                                                
  23720412.805   126665649.960 0                  23720414.018    98517717.124 0
                                                
  23856866.568   127573352.186 0                  23856870.614    99223706.323 0
                                                
  20077882.938   107440817.309 0                  20077883.097    83565079.717 0
                                                
  20869912.309   111405022.520 0                  20869912.503    86648354.134 0
                                                
 20  3 17  6 28 40.0000000  0 15G 5G10G13G15G16G20G21G25G29R 5R 7R13
                                R20R21R22
  25317677.270   133045285.407 0                  25317677.182   103671651.840 0
  25317677.062                                  
  23304689.506   122466961.409 0                  23304692.160    95428779.406 0
  23304692.580                                  
  23310086.526   122495324.501 0                                  95450911.785 0
  23310086.230                                  
  21802133.583   114570972.578 0                  21802133.631    89276082.072 0
  21802133.571                                  
  23151577.173   121662368.436 0                                  94801826.921 0
  23151576.703                                  
  20862008.384   109630599.803 0                                  85426422.560 0
  20862008.134                                  
  21268448.770   111766437.040 0                                  87090732.814 0
  21268447.619                                  
  25532586.895   134174625.217 0                  25532590.576   104551630.100 0
  25532590.376                                  
  21134614.453   111063168.322 0                  21134614.700    86542712.572 0
  21134614.640                                  
  23874044.706   127620447.943 0                  23874045.142    99260347.583 0
                                                
  20244600.646   108370920.965 0                  20244601.251    84288490.907 0
                                                
  23720240.816   126664731.549 0                  23720242.029    98517002.805 0
                                                
  23859507.956   127587476.874 0                  23859512.002    99234692.191 0
                                                
  20078470.404   107443960.957 0                  20078470.562    83567524.776 0
                                                
  20867737.959   111393415.687 0                  20867738.152    86639326.597 0
                                                
 20  3 17  6 28 45.0000000  0 15G 5G10G13G15G16G20G21G25G29R 5R 7R13
                                R20R21R22
  25321101.634   133063280.560 0                  25321101.545   103685674.037 0
  25321101.425                                  
  23301766.977   122451603.415 0                  23301769.631    95416812.138 0
  23301770.051                                  
  23310233.662   122496097.710 0                                  95451514.286 0
  23310233.367                                  
  21801297.013   114566576.376 0                  21801297.061    89272656.460 0
  21801297.001                                  
  23150535.695   121656895.434 0                                  94797562.244 0
  23150535.226                                  
  20860267.355   109621450.637 0                                  85419293.339 0
  20860267.106                                  
  21268128.382   111764753.389 0                                  87089420.879 0
  21268127.231                                  
  25535886.853   134191966.613 0                  25535890.534   104565142.876 0
  25535890.334                                  
  21136516.305   111073162.618 0                  21136516.551    86550500.334 0
  21136516.491                                  
  23877910.505   127641112.852 0                  23877910.941    99276420.290 0
                                                
  20241875.614   108356333.654 0                  20241876.219    84277145.221 0
                                                
  23720072.515   126663832.829 0                  23720073.727    98516303.800 0
                                                
  23862150.348   127601606.929 0                  23862154.393    99245682.234 0
                                                
  20079059.801   107447114.939 0                  20079059.959    83569977.873 0
                                                
  20865564.365   111381812.899 0                  20865564.559    86630302.206 0
                                                
 20  3 17  6 28 50.0000000  0 15G 5G10G13G15G16G20G21G25G29R 5R 7R13
                                R20R21R22
  25324525.939   133081275.405 0                  25324525.850   103699695.994 0
  25324525.730                                  
  23298845.699   122436251.997 0                  23298848.353    95404849.994 0
  23298848.773                                  
  23310383.848   122496886.940 0                                  95452129.270 0
  23310383.552                                  
  21800463.556   114562196.530 0                  21800463.604    89269243.593 0
  21800463.544                                  
  23149497.230   121651438.265 0                                  94793309.905 0
  23149496.761                                  
  20858528.400   109612312.362 0                                  85412172.606 0
  20858528.150                                  
  21267808.652   111763073.200 0                                  87088111.641 0
  21267807.502                                  
  25539186.002   134209303.759 0                  25539189.683   104578652.341 0
  25539189.483                                  
  21138420.396   111083168.684 0                  21138420.642    86558297.269 0
  21138420.582                                  
  23881777.367   127661783.447 0                  23881777.803    99292497.420 0
                                                
  20239153.722   108341763.151 0                  20239154.327    84265812.607 0
                                                
  23719907.936   126662953.991 0                  23719909.149    98515620.259 0
                                                
  23864793.745   127615742.361 0                  23864797.790    99256676.459 0
                                                
  20079651.164   107450279.444 0                  20079651.323    83572439.155 0
                                                
  20863391.543   111370214.226 0                  20863391.737    86621281.016 0
                                                
 20  3 17  6 28 55.0000000  0 15G 5G10G13G15G16G20G21G25G29R 5R 7R13
                                R20R21R22
  25327950.192   133099269.976 0                  25327950.103   103713717.737 0
  25327949.983                                  
  23295925.680   122420907.193 0                  23295928.334    95392893.004 0
  23295928.754                                  
  23310537.084   122497692.203 0                                  95452756.748 0
  23310536.789                                  
  21799633.221   114557833.088 0                  21799633.269    89265843.509 0
  21799633.209                                  
  23148461.788   121645996.977 0                                  94789069.940 0
  23148461.318                                  
  20856791.529   109603185.045 0                                  85405060.411 0
  20856791.279                                  
  21267489.586   111761396.495 0                                  87086805.117 0
  21267488.436                                  
  25542484.328   134226636.581 0                  25542488.010   104592158.436 0
  25542487.810                                  
  21140326.732   111093186.548 0                  21140326.978    86566103.397 0
  21140326.918                                  
  23885645.256   127682459.529 0                  23885645.692    99308578.817 0
                                                
  20236434.956   108327209.385 0                  20236435.561    84254493.011 0
                                                
  23719747.059   126662094.914 0                  23719748.272    98514952.089 0
                                                
  23867438.165   127629883.266 0                  23867442.211    99267674.941 0
                                                
  20080244.489   107453454.444 0                  20080244.647    83574908.599 0
                                                
  20861219.480   111358619.604 0                  20861219.673    86612262.977 0
                                                
 20  3 17  6 29  0.0000000  0 15G 5G10G13G15G16G20G21G25G29R 5R 7R13
                                R20R21R22
  25331374.387   133117264.136 0                  25331374.298   103727739.169 0
  25331374.178                                  
  23293006.901   122405568.941 0                  23293009.573    95380941.150 0
  23293009.993                                  
  23310693.335   122498513.436 0                                  95453396.703 0
  23310693.031                                  
  21798805.972   114553486.000 0                  21798806.031    89262456.202 0
  21798805.951                                  
  23147429.332   121640571.378 0                                  94784842.220 0
  23147428.870                                  
  20855056.706   109594068.581 0                                  85397956.698 0
  20855056.444                                  
  21267171.155   111759723.167 0                                  87085501.252 0
  21267169.996                                  
  25545781.744   134243965.447 0                  25545785.528   104605661.692 0
  25545785.348                                  
  21142235.292   111103216.098 0                  21142235.558    86573918.631 0
  21142235.498                                  
  23889514.113   127703140.790 0                  23889514.629    99324664.208 0
                                                
  20233719.294   108312672.191 0                  20233719.876    84243186.262 0
                                                
  23719589.874   126661255.226 0                  23719591.141    98514298.907 0
                                                
  23870083.584   127644029.506 0                  23870087.649    99278677.539 0
                                                
  20080839.740   107456639.753 0                  20080839.918    83577386.028 0
                                                
  20859048.162   111347028.944 0                  20859048.323    86603247.986 0
                                                
 20  3 17  6 29  5.0000000  0 15G 5G10G13G15G16G20G21G25G29R 5R 7R13
                                R20R21R22
  25334798.475   133135257.839 0                  25334798.386   103741760.236 0
  25334798.266                                  
  23290089.338   122390237.047 0                  23290092.011    95368994.220 0
  23290092.431                                  
  23310852.629   122499350.532 0                                  95454048.985 0
  23310852.325                                  
  21797981.826   114549155.084 0                  21797981.885    89259081.462 0
  21797981.805                                  
  23146399.851   121635161.421 0                                  94780626.668 0
  23146399.389                                  
  20853323.941   109584962.840 0                                  85390861.315 0
  20853323.679                                  
  21266853.348   111758053.080 0                                  87084199.886 0
  21266852.189                                  
  25549078.373   134261289.349 0                  25549082.156   104619160.836 0
  25549081.976                                  
  21144146.054   111113257.224 0                  21144146.321    86581742.885 0
  21144146.261                                  
  23893383.985   127723827.470 0                  23893384.501    99340753.849 0
                                                
  20231006.734   108298151.643 0                  20231007.315    84231892.503 0
                                                
  23719436.328   126660435.296 0                  23719437.594    98513661.184 0
                                                
  23872729.984   127658181.000 0                  23872734.050    99289684.256 0
                                                
  20081436.931   107459835.440 0                  20081437.109    83579871.563 0
                                                
  20856877.569   111335442.172 0                  20856877.730    86594236.052 0
                                                
 20  3 17  6 29 10.0000000  0 15G 5G10G13G15G16G20G21G25G29R 5R 7R13
                                R20R21R22
  25338222.506   133153251.244 0                  25338222.417   103755781.071 0
  25338222.297                                  
  23287173.038   122374911.786 0                  23287175.711    95357052.458 0
  23287176.131                                  
  23311014.987   122500203.730 0                                  95454713.815 0
  23311014.684                                  
  21797160.797   114544840.552 0                  21797160.857    89255719.489 0
  21797160.777                                  
  23145373.390   121629767.334 0                                  94776423.484 0
  23145372.928                                  
  20851593.266   109575868.085 0                                  85383774.493 0
  20851593.004                                  
  21266536.208   111756386.497 0                                  87082901.250 0
  21266535.049                                  
  25552374.183   134278608.947 0                  25552377.966   104632656.627 0
  25552377.786                                  
  21146059.060   111123310.139 0                  21146059.327    86589576.324 0
  21146059.267                                  
  23897254.867   127744519.552 0                  23897255.383    99356847.690 0
                                                
  20228297.329   108283647.985 0                  20228297.910    84220611.880 0
                                                
  23719286.499   126659635.219 0                  23719287.766    98513038.902 0
                                                
  23875377.396   127672337.899 0                  23875381.461    99300695.178 0
                                                
  20082036.082   107463041.619 0                  20082036.260    83582365.257 0
                                                
  20854707.779   111323859.689 0                  20854707.941    86585227.454 0
                                                
 20  3 17  6 29 15.0000000  0 15G 5G10G13G15G16G20G21G25G29R 5R 7R13
                                R20R21R22
  25341646.464   133171244.268 0                  25341646.376   103769801.609 0
  25341646.256                                  
  23284257.987   122359593.091 0                  23284260.660    95345115.813 0
  23284261.080                                  
  23311180.388   122501072.916 0                                  95455391.103 0
  23311180.084                                  
  21796342.880   114540542.368 0                  21796342.940    89252370.255 0
  21796342.860                                  
  23144349.931   121624389.018 0                                  94772232.588 0
  23144349.469                                  
  20849864.667   109566784.235 0                                  85376696.169 0
  20849864.405                                  
  21266219.723   111754723.355 0                                  87081605.295 0
  21266218.564                                  
  25555669.150   134295924.117 0                  25555672.934   104646148.967 0
  25555672.754                                  
  21147974.295   111133374.765 0                  21147974.562    86597418.891 0
  21147974.502                                  
  23901126.739   127765216.932 0                  23901127.256    99372945.652 0
                                                
  20225591.043   108269161.026 0                  20225591.624    84209344.245 0
                                                
  23719140.372   126658854.908 0                  23719141.639    98512431.994 0
                                                
  23878025.804   127686500.128 0                  23878029.870    99311710.245 0
                                                
  20082637.186   107466258.252 0                  20082637.365    83584867.083 0
                                                
  20852538.715   111312281.078 0                  20852538.877    86576221.868 0
                                                
 20  3 17  6 29 20.0000000  0 15G 5G10G13G15G16G20G21G25G29R 5R 7R13
                                R20R21R22
  25345070.355   133189236.934 0                  25345070.266   103783821.868 0
  25345070.146                                  
  23281344.193   122344281.000 0                  23281346.866    95333184.313 0
  23281347.286                                  
  23311348.837   122501958.125 0                                  95456080.876 0
  23311348.534                                  
  21795528.084   114536260.583 0                  21795528.143    89249033.799 0
  21795528.063                                  
  23143329.485   121619026.540 0                                  94768054.034 0
  23143329.023                                  
  20848138.150   109557711.323 0                                  85369626.367 0
  20848137.888                                  
  21265903.896   111753063.675 0                                  87080312.038 0
  21265902.737                                  
  25558963.288   134313234.930 0                  25558967.072   104659637.913 0
  25558966.892                                  
  21149891.768   111143451.153 0                  21149892.035    86605270.621 0
  21149891.975                                  
  23904999.636   127785919.784 0                  23905000.152    99389047.870 0
                                                
  20222887.912   108254690.953 0                  20222888.493    84198089.744 0
                                                
  23718997.942   126658094.341 0                  23718999.209    98511840.441 0
                                                
  23880675.237   127700667.835 0                  23880679.302    99322729.572 0
                                                
  20083240.262   107469485.429 0                  20083240.440    83587377.110 0
                                                
  20850370.462   111300706.796 0                  20850370.624    86567219.648 0
                                                
 20  3 17  6 29 25.0000000  0 15G 5G10G13G15G16G20G21G25G29R 5R 7R13
                                R20R21R22
  25348494.164   133207229.171 0                  25348494.075   103797841.794 0
  25348493.955                                  
  23278431.641   122328975.435 0                  23278434.314    95321257.899 0
  23278434.734                                  
  23311520.326   122502859.304 0                                  95456783.094 0
  23311520.023                                  
  21794716.393   114531995.118 0                  21794716.452    89245710.060 0
  21794716.372                                  
  23142312.036   121613679.809 0                                  94763887.750 0
  23142311.574                                  
  20846413.696   109548649.258 0                                  85362565.018 0
  20846413.434                                  
  21265588.708   111751407.352 0                                  87079021.396 0
  21265587.549                                  
  25562256.574   134330541.263 0                  25562260.358   104673123.367 0
  25562260.178                                  
  21151811.454   111153539.173 0                  21151811.721    86613131.416 0
  21151811.661                                  
  23908873.523   127806627.929 0                  23908874.039    99405154.206 0
                                                
  20220187.874   108240237.439 0                  20220188.455    84186848.122 0
                                                
  23718859.161   126657353.258 0                  23718860.428    98511264.043 0
                                                
  23883325.654   127714840.806 0                  23883329.719    99333752.994 0
                                                
  20083845.273   107472722.966 0                  20083845.451    83589895.194 0
                                                
  20848202.930   111289136.360 0                  20848203.091    86558220.420 0
                                                
 20  3 17  6 29 30.0000000  0 15G 5G10G13G15G16G20G21G25G29R 5R 7R13
                                R20R21R22
  25351917.869   133225220.969 0                  25351917.821   103811861.368 0
  25351917.701                                  
  23275520.337   122313676.568 0                  23275523.060    95309336.739 0
  23275523.480                                  
  23311694.869   122503776.537 0                                  95457497.820 0
  23311694.566                                  
  21793907.819   114527746.112 0                  21793907.874    89242399.166 0
  21793907.814                                  
  23141297.583   121608348.890 0                                  94759733.780 0
  23141297.193                                  
  20844691.311   109539598.209 0                                  85355512.288 0
  20844691.041                                  
  21265274.161   111749754.502 0                                  87077733.461 0
  21265273.002                                  
  25565548.999   134347843.336 0                  25565552.793   104686605.541 0
  25565552.593                                  
  21153733.378   111163638.880 0                  21153733.629    86621001.301 0
  21153733.589                                  
  23912748.389   127827341.304 0                  23912748.886    99421264.632 0
                                                
  20217490.976   108225800.867 0                  20217491.588    84175619.729 0
                                                
  23718724.062   126656631.828 0                  23718725.389    98510702.945 0
                                                
  23885977.074   127729019.142 0                  23885981.140    99344780.605 0
                                                
  20084452.239   107475970.962 0                  20084452.457    83592421.429 0
                                                
  20846036.178   111277570.163 0                  20846036.335    86549224.524 0
                                                
 20  3 17  6 29 35.0000000  0 13G10G13G15G16G20G21G25G29R 5R 7R13R21
                                R22
  23272610.286   122298384.149 0                  23272613.010    95297420.569 0
  23272613.430                                  
  23311872.444   122504709.695 0                                  95458224.957 0
  23311872.140                                  
  21793102.353   114523513.362 0                  21793102.408    89239100.920 0
  21793102.348                                  
  23140286.142   121603033.729 0                                  94755592.096 0
  23140285.752                                  
  20842971.003   109530557.928 0                                  85348467.913 0
  20842970.733                                  
  21264960.269   111748104.987 0                                  87076448.125 0
  21264959.110                                  
  25568840.591   134365140.768 0                  25568844.385   104700084.060 0
  25568844.185                                  
  21155657.507   111173750.249 0                  21155657.758    86628880.289 0
  21155657.718                                  
  23916624.245   127848059.974 0                  23916624.741    99437379.153 0
                                                
  20214797.232   108211381.049 0                  20214797.845    84164404.315 0
                                                
  23718592.643   126655930.062 0                  23718593.971    98510157.126 0
                                                
  20085061.158   107479229.413 0                  20085061.376    83594955.780 0
                                                
  20843870.184   111266007.938 0                  20843870.341    86540231.682 0
                                                
 20  3 17  6 29 40.0000000  0 13G10G13G15G16G20G21G25G29R 5R 7R13R21
                                R22
  23269701.493   122283098.339 0                  23269704.217    95285509.548 0
  23269704.637                                  
  23312053.066   122505658.872 0                                  95458964.575 0
  23312052.763                                  
  21792299.996   114519296.944 0                  21792300.050    89235815.399 0
  21792299.990                                  
  23139277.731   121597734.496 0                                  94751462.824 0
  23139277.341                                  
  20841252.772   109521528.564 0                                  85341432.046 0
  20841252.502                                  
  21264647.030   111746458.902 0                                  87075165.462 0
  21264645.871                                  
  25572131.338   134382433.761 0                  25572135.132   104713559.119 0
  25572134.932                                  
  21157583.862   111183873.313 0                  21157584.113    86636768.391 0
  21157584.073                                  
  23920501.089   127868783.926 0                  23920501.585    99453497.783 0
                                                
  20212106.625   108196978.016 0                  20212107.237    84153201.956 0
                                                
  23718464.919   126655248.020 0                  23718466.246    98509626.649 0
                                                
  20085672.022   107482498.271 0                  20085672.241    83597498.226 0
                                                
  20841704.951   111254449.777 0                  20841705.108    86531242.002 0
                                                
 20  3 17  6 29 45.0000000  0 13G10G13G15G16G20G21G25G29R 5R 7R13R21
                                R22
  23266793.955   122267819.124 0                  23266796.679    95273603.666 0
  23266797.099                                  
  23312236.727   122506624.016 0                                  95459716.635 0
  23312236.423                                  
  21791500.755   114515096.906 0                  21791500.810    89232542.642 0
  21791500.750                                  
  23138272.322   121592451.038 0                                  94747345.843 0
  23138271.932                                  
  20839536.614   109512510.088 0                                  85334404.662 0
  20839536.343                                  
  21264334.441   111744816.238 0                                  87073885.464 0
  21264333.282                                  
  25575421.236   134399722.293 0                  25575425.030   104727030.702 0
  25575424.830                                  
  21159512.448   111194008.101 0                  21159512.699    86644665.629 0
  21159512.659                                  
  23924378.904   127889513.070 0                  23924379.400    99469620.450 0
                                                
  20209419.163   108182591.825 0                  20209419.776    84142012.696 0
                                                
  23718340.874   126654585.626 0                  23718342.201    98509111.454 0
                                                
  20086284.853   107485777.649 0                  20086285.071    83600048.853 0
                                                
  20839540.497   111242895.776 0                  20839540.654    86522255.557 0
                                                
 20  3 17  6 29 50.0000000  0 13G10G13G15G16G20G21G25G29R 5R 7R13R21
                                R22
  23263887.659   122252546.435 0                  23263890.383    95261702.870 0
  23263890.803                                  
  23312423.410   122507605.045 0                                  95460481.074 0
  23312423.107                                  
  21790704.629   114510913.234 0                  21790704.684    89229282.638 0
  21790704.623                                  
  23137269.908   121587183.315 0                                  94743241.124 0
  23137269.518                                  
  20837822.513   109503502.429 0                                  85327385.706 0
  20837822.242                                  
  21264022.491   111743176.931 0                                  87072608.081 0
  21264021.332                                  
  25578710.264   134417006.248 0                  25578714.058   104740498.720 0
  25578713.858                                  
  21161443.239   111204154.474 0                  21161443.490    86652571.893 0
  21161443.450                                  
  23928257.688   127910247.396 0                  23928258.185    99485747.148 0
                                                
  20206734.833   108168222.395 0                  20206735.446    84130836.473 0
                                                
  23718220.502   126653942.847 0                  23718221.829    98508611.515 0
                                                
  20086899.612   107489067.349 0                  20086899.830    83602607.509 0
                                                
  20837376.792   111231345.772 0                  20837376.949    86513272.220 0
                                                
 20  3 17  6 29 55.0000000  0 13G10G13G15G16G20G21G25G29R 5R 7R13R21
                                R22
  23260982.647   122237280.491 0                  23260985.370    95249807.329 0
  23260985.790                                  
  23312613.165   122508602.213 0                                  95461258.088 0
  23312612.862                                  
  21789911.648   114506746.093 0                  21789911.703    89226035.515 0
  21789911.643                                  
  23136270.545   121581931.628 0                                  94739148.900 0
  23136270.155                                  
  20836110.513   109494505.809 0                                  85320375.353 0
  20836110.242                                  
  21263711.210   111741541.139 0                                  87071333.438 0
  21263710.052                                  
  25581998.468   134434285.880 0                  25582002.262   104753963.368 0
  25582002.062                                  
  21163376.279   111214312.669 0                  21163376.530    86660487.370 0
  21163376.490                                  
  23932137.483   127930987.124 0                  23932137.980    99501878.048 0
                                                
  20204053.679   108153869.965 0                  20204054.291    84119673.471 0
                                                
  23718103.837   126653319.861 0                  23718105.164    98508126.970 0
                                                
  20087516.377   107492367.783 0                  20087516.595    83605174.513 0
                                                
  20835213.898   111219800.094 0                  20835214.055    86504292.249 0
                                                
 20  3 17  6 30  0.0000000  0 14G 5G10G13G15G16G20G21G25G29R 5R 7R13
                                R21R22
  25372458.326   133333162.245 0                  25372458.211   103895971.573 0
  25372458.091                                  
  23258078.857   122222021.092 0                  23258081.585    95237916.926 0
  23258082.005                                  
  23312805.924   122509615.306 0                                  95462047.554 0
  23312805.573                                  
  21789121.762   114502595.283 0                  21789121.813    89222801.143 0
  21789121.753                                  
  23135274.162   121576695.588 0                                  94735068.879 0
  23135273.720                                  
  20834400.559   109485520.006 0                                  85313373.454 0
  20834400.284                                  
  21263400.551   111739908.614 0                                  87070061.349 0
  21263399.352                                  
  25585285.786   134451560.978 0                  25585289.413   104767424.531 0
  25585289.233                                  
  21165311.517   111224482.405 0                  21165311.768    86668411.838 0
  21165311.728                                  
  23936018.226   127951731.922 0                  23936018.742    99518012.875 0
                                                
  20201375.653   108139534.363 0                  20201376.301    84108523.563 0
                                                
  23717990.848   126652716.331 0                  23717992.100    98507657.498 0
                                                
  20088135.069   107495678.472 0                  20088135.250    83607749.462 0
                                                
  20833051.740   111208258.356 0                  20833051.937    86495315.326 0
                                                
 20  3 17  6 30  5.0000000  0 14G 5G10G13G15G16G20G21G25G29R 5R 7R13
                                R21R22
  25375881.451   133351150.883 0                  25375881.335   103909988.694 0
  25375881.215                                  
  23255176.352   122206768.329 0                  23255179.081    95226031.655 0
  23255179.501                                  
  23313001.760   122510644.431 0                                  95462849.469 0
  23313001.408                                  
  21788335.027   114498460.961 0                  21788335.077    89219579.593 0
  21788335.017                                  
  23134280.798   121571475.425 0                                  94731001.219 0
  23134280.356                                  
  20832692.700   109476545.147 0                                  85306380.057 0
  20832692.425                                  
  21263090.560   111738279.599 0                                  87068791.986 0
  21263089.361                                  
  25588572.267   134468831.552 0                  25588575.894   104780882.121 0
  25588575.714                                  
  21167248.994   111234663.919 0                  21167249.245    86676345.485 0
  21167249.205                                  
  23939899.945   127972481.938 0                  23939900.462    99534151.776 0
                                                
  20198700.812   108125215.731 0                  20198701.460    84097386.848 0
                                                
  23717881.529   126652132.573 0                  23717882.781    98507203.464 0
                                                
  20088755.733   107498999.770 0                  20088755.914    83610332.694 0
                                                
  20830890.377   111196720.856 0                  20830890.574    86486341.714 0
                                                
 20  3 17  6 30 10.0000000  0 14G 5G10G13G15G16G20G21G25G29R 5R 7R13
                                R21R22
  25379304.477   133369139.008 0                  25379304.361   103924005.415 0
  25379304.241                                  
  23252275.107   122191522.181 0                  23252277.835    95214151.540 0
  23252278.255                                  
  23313200.642   122511689.562 0                                  95463663.857 0
  23313200.290                                  
  21787551.409   114494343.023 0                  21787551.460    89216370.810 0
  21787551.400                                  
  23133290.436   121566271.035 0                                  94726945.850 0
  23133289.993                                  
  20830986.915   109467581.188 0                                  85299395.154 0
  20830986.640                                  
  21262781.212   111736653.962 0                                  87067525.257 0
  21262780.013                                  
  25591857.883   134486097.582 0                  25591861.510   104794336.170 0
  25591861.330                                  
  21169188.688   111244857.077 0                  21169188.939    86684288.206 0
  21169188.899                                  
  23943782.615   127993237.034 0                  23943783.132    99550294.629 0
                                                
  20196029.122   108110913.961 0                  20196029.769    84086263.249 0
                                                
  23717775.896   126651568.497 0                  23717777.148    98506764.738 0
                                                
  20089378.358   107502331.563 0                  20089378.539    83612924.088 0
                                                
  20828729.796   111185187.526 0                  20828729.993    86477371.347 0
                                                
 20  3 17  6 30 15.0000000  0 14G 5G10G13G15G16G20G21G25G29R 5R 7R13
                                R21R22
  25382727.408   133387126.634 0                  25382727.293   103938021.746 0
  25382727.173                                  
  23249375.122   122176282.656 0                  23249377.850    95202276.586 0
  23249378.270                                  
  23313402.574   122512750.724 0                                  95464490.736 0
  23313402.223                                  
  21786770.920   114490241.527 0                  21786770.971    89213174.839 0
  21786770.911                                  
  23132303.080   121561082.444 0                                  94722902.792 0
  23132302.637                                  
  20829283.211   109458628.162 0                                  85292418.770 0
  20829282.936                                  
  21262472.510   111735031.725 0                                  87066261.176 0
  21262471.311                                  
  25595142.633   134503359.056 0                  25595146.259   104807786.670 0
  25595146.079                                  
  21171130.605   111255061.919 0                  21171130.856    86692240.031 0
  21171130.816                                  
  23947666.250   128013997.289 0                  23947666.767    99566441.494 0
                                                
  20193360.575   108096629.024 0                  20193361.223    84075152.743 0
                                                
  23717673.955   126651024.141 0                  23717675.207    98506341.350 0
                                                
  20090002.941   107505673.833 0                  20090003.123    83615523.632 0
                                                
  20826569.984   111173658.302 0                  20826570.181    86468404.173 0
                                                
 20  3 17  6 30 20.0000000  0 14G 5G10G13G15G16G20G21G25G29R 5R 7R13
                                R21R22
  25386150.235   133405113.709 0                  25386150.119   103952037.649 0
  25386149.999                                  
  23246476.394   122161049.739 0                  23246479.122    95190406.780 0
  23246479.542                                  
  23313607.541   122513827.832 0                                  95465330.041 0
  23313607.189                                  
  21785993.558   114486156.459 0                  21785993.609    89209991.670 0
  21785993.549                                  
  23131318.729   121555909.644 0                                  94718872.039 0
  23131318.286                                  
  20827581.574   109449685.999 0                                  85285450.851 0
  20827581.299                                  
  21262164.434   111733412.772 0                                  87064999.654 0
  21262163.235                                  
  25598426.510   134520615.945 0                  25598430.136   104821233.596 0
  25598429.956                                  
  21173074.732   111265278.377 0                  21173074.983    86700200.907 0
  21173074.943                                  
  23951550.825   128034762.568 0                  23951551.341    99582592.266 0
                                                
  20190695.193   108082361.022 0                  20190695.841    84064055.408 0
                                                
  23717575.690   126650499.408 0                  23717576.942    98505933.225 0
                                                
  20090629.473   107509026.534 0                  20090629.655    83618131.288 0
                                                
  20824410.957   111162133.267 0                  20824411.153    86459440.257 0
                                                
 20  3 17  6 30 25.0000000  0 14G 5G10G13G15G16G20G21G25G29R 5R 7R13
                                R21R22
  25389572.989   133423100.405 0                  25389572.874   103966053.256 0
  25389572.754                                  
  23243578.945   122145823.540 0                  23243581.673    95178542.210 0
  23243582.093                                  
  23313815.569   122514921.025 0                                  95466181.880 0
  23313815.217                                  
  21785219.343   114482087.932 0                  21785219.394    89206821.389 0
  21785219.334                                  
  23130337.409   121550752.777 0                                  94714853.701 0
  23130336.967                                  
  20825882.028   109440754.827 0                                  85278491.496 0
  20825881.753                                  
  21261857.024   111731797.323 0                                  87063740.862 0
  21261855.825                                  
  25601709.535   134537868.363 0                  25601713.162   104834677.039 0
  25601712.982                                  
  21175021.087   111275506.542 0                  21175021.338    86708170.906 0
  21175021.298                                  
  23955436.392   128055533.151 0                  23955436.909    99598747.164 0
                                                
  20188033.012   108068110.161 0                  20188033.660    84052971.405 0
                                                
  23717481.115   126649994.382 0                  23717482.366    98505540.427 0
                                                
  20091257.988   107512389.842 0                  20091258.169    83620747.194 0
                                                
  20822252.728   111150612.494 0                  20822252.924    86450479.655 0
                                                
 20  3 17  6 30 30.0000000  0 13G 5G10G13G15G16G20G21G29R 5R 7R13R21
                                R22
  25392995.580   133441086.240 0                  25392995.464   103980068.217 0
  25392995.344                                  
  23240682.701   122130603.751 0                  23240685.425    95166682.679 0
  23240685.845                                  
  23314026.580   122516029.935 0                                  95467045.974 0
  23314026.252                                  
  21784448.210   114478035.600 0                  21784448.240    89203663.752 0
  21784448.160                                  
  23129359.051   121545611.375 0                                  94710847.412 0
  23129358.621                                  
  20824184.486   109431834.258 0                                  85271540.426 0
  20824184.160                                  
  21261550.223   111730185.009 0                                  87062484.530 0
  21261549.028                                  
  21176969.613   111285745.977 0                  21176969.832    86716149.669 0
  21176969.792                                  
  23959322.869   128076308.740 0                  23959323.376    99614906.001 0
                                                
  20185373.956   108053876.063 0                  20185374.608    84041900.456 0
                                                
  23717390.188   126649508.722 0                  23717391.407    98505162.677 0
                                                
  20091888.440   107515763.519 0                  20091888.602    83623371.182 0
                                                
  20820095.233   111139095.752 0                  20820095.429    86441522.215 0
                                                
 20  3 17  6 30 35.0000000  0 13G 5G10G13G15G16G20G21G29R 5R 7R13R21
                                R22
  25396418.191   133459072.184 0                  25396418.076   103994083.238 0
  25396417.956                                  
  23237787.839   122115391.147 0                  23237790.563    95154828.702 0
  23237790.983                                  
  23314240.758   122517155.450 0                                  95467922.999 0
  23314240.430                                  
  21783680.320   114474000.310 0                  21783680.350    89200519.370 0
  21783680.270                                  
  23128383.814   121540486.468 0                                  94706853.979 0
  23128383.384                                  
  20822489.147   109422925.190 0                                  85264598.296 0
  20822488.821                                  
  21261244.171   111728576.696 0                                  87061231.300 0
  21261242.976                                  
  21178920.456   111295997.727 0                  21178920.675    86724138.045 0
  21178920.635                                  
  23963210.333   128097089.463 0                  23963210.840    99631068.785 0
                                                
  20182718.112   108039659.122 0                  20182718.764    84030842.835 0
                                                
  23717302.971   126649042.983 0                  23717304.190    98504800.436 0
                                                
  20092520.892   107519147.897 0                  20092521.053    83626003.475 0
                                                
  20817938.560   111127583.284 0                  20817938.756    86432568.073 0
                                                
 20  3 17  6 30 40.0000000  0 13G 5G10G13G15G16G20G21G29R 5R 7R13R21
                                R22
  25399840.644   133477057.293 0                  25399840.528   104008097.609 0
  25399840.408                                  
  23234894.179   122100184.861 0                  23234896.903    95142979.648 0
  23234897.323                                  
  23314457.926   122518296.676 0                                  95468812.266 0
  23314457.598                                  
  21782915.501   114469981.160 0                  21782915.531    89197387.565 0
  21782915.451                                  
  23127411.533   121535377.096 0                                  94702872.650 0
  23127411.103                                  
  20820795.821   109414026.700 0                                  85257664.407 0
  20820795.494                                  
  21260938.718   111726971.531 0                                  87059980.522 0
  21260937.523                                  
  21180873.451   111306260.785 0                  21180873.670    86732135.233 0
  21180873.630                                  
  23967098.721   128117875.128 0                  23967099.229    99647235.413 0
                                                
  20180065.418   108025459.045 0                  20180066.070    84019798.331 0
                                                
  23717219.432   126648596.890 0                  23717220.651    98504453.475 0
                                                
  20093155.295   107522542.716 0                  20093155.457    83628643.891 0
                                                
  20815782.674   111116075.018 0                  20815782.870    86423617.200 0
                                                
 20  3 17  6 30 45.0000000  0 13G 5G10G13G15G16G20G21G29R 5R 7R13R21
                                R22
  25403262.990   133495041.843 0                  25403262.874   104022111.544 0
  25403262.754                                  
  23232001.791   122084985.257 0                  23232004.514    95131135.801 0
  23232004.934                                  
  23314678.142   122519453.919 0                                  95469714.014 0
  23314677.814                                  
  21782153.815   114465978.472 0                  21782153.845    89194268.587 0
  21782153.765                                  
  23126442.268   121530283.578 0                                  94698903.674 0
  23126441.838                                  
  20819104.574   109405139.136 0                                  85250739.033 0
  20819104.247                                  
  21260633.919   111725369.797 0                                  87058732.418 0
  21260632.724                                  
  21182828.659   111316535.474 0                  21182828.879    86740141.484 0
  21182828.839                                  
  23970988.055   128138665.844 0                  23970988.562    99663405.971 0
                                                
  20177415.909   108011276.017 0                  20177416.561    84008767.087 0
                                                
  23717139.545   126648170.303 0                  23717140.765    98504121.685 0
                                                
  20093791.674   107525948.111 0                  20093791.836    83631292.531 0
                                                
  20813627.579   111104570.976 0                  20813627.775    86414669.612 0
                                                
 20  3 17  6 30 50.0000000  0 13G 5G10G13G15G16G20G21G29R 5R 7R13R21
                                R22
  25406685.228   133513025.826 0                  25406685.112   104036125.038 0
  25406684.992                                  
  23229110.671   122069792.321 0                  23229113.395    95119297.149 0
  23229113.815                                  
  23314901.408   122520627.192 0                                  95470628.252 0
  23314901.081                                  
  21781395.260   114461992.242 0                  21781395.291    89191162.434 0
  21781395.211                                  
  23125476.019   121525205.906 0                                  94694947.047 0
  23125475.589                                  
  20817415.404   109396262.491 0                                  85243822.167 0
  20817415.078                                  
  21260329.764   111723771.453 0                                  87057486.955 0
  21260328.569                                  
  21184786.082   111326821.801 0                  21184786.302    86748156.804 0
  21184786.262                                  
  23974878.330   128159461.595 0                  23974878.838    99679580.444 0
                                                
  20174769.584   107997110.032 0                  20174770.236    83997749.099 0
                                                
  23717063.343   126647763.388 0                  23717064.563    98503805.196 0
                                                
  20094430.025   107529364.055 0                  20094430.187    83633949.376 0
                                                
  20811473.285   111093071.208 0                  20811473.481    86405725.348 0
                                                
 20  3 17  6 30 55.0000000  0 13G 5G10G13G15G16G20G21G29R 5R 7R13R21
                                R22
  25410107.363   133531009.266 0                  25410107.247   104050138.107 0
  25410107.127                                  
  23226220.827   122054606.089 0                  23226223.551    95107463.721 0
  23226223.971                                  
  23315127.723   122521816.484 0                                  95471554.974 0
  23315127.395                                  
  21780639.843   114458022.498 0                  21780639.874    89188069.127 0
  21780639.794                                  
  23124512.791   121520144.105 0                                  94691002.787 0
  23124512.361                                  
  20815728.315   109387396.777 0                                  85236913.818 0
  20815727.989                                  
  21260026.258   111722176.520 0                                  87056244.150 0
  21260025.063                                  
  21186745.719   111337119.762 0                  21186745.939    86756181.189 0
  21186745.899                                  
  23978769.548   128180262.385 0                  23978770.055    99695758.835 0
                                                
  20172126.424   107982960.987 0                  20172127.076    83986744.286 0
                                                
  23716990.825   126647376.145 0                  23716992.044    98503504.006 0
                                                
  20095070.336   107532790.489 0                  20095070.498    83636614.381 0
                                                
  20809319.771   111081575.605 0                  20809319.968    86396784.324 0
                                                
 20  3 17  6 31  0.0000000  0 13G 5G10G13G15G16G20G21G29R 5R 7R13R21
                                R22
  25413529.386   133548992.119 0                  25413529.270   104064150.695 0
  25413529.150                                  
  23223332.231   122039426.545 0                  23223334.974    95095635.491 0
  23223335.394                                  
  23315357.075   122523021.803 0                                  95472494.176 0
  23315356.783                                  
  21779887.537   114454069.288 0                  21779887.583    89184988.699 0
  21779887.503                                  
  23123552.555   121515098.128 0                                  94687070.841 0
  23123552.193                                  
  20814043.285   109378541.986 0                                  85230013.975 0
  20814042.946                                  
  21259723.385   111720584.982 0                                  87055003.966 0
  21259722.186                                  
  21188707.568   111347429.277 0                  21188707.791    86764214.536 0
  21188707.751                                  
  23982661.678   128201068.246 0                  23982662.153    99711941.238 0
                                                
  20169486.470   107968829.195 0                  20169487.090    83975752.909 0
                                                
  23716921.952   126647008.403 0                  23716923.189    98503217.970 0
                                                
  20095712.609   107536227.489 0                  20095712.807    83639287.628 0
                                                
  20807167.064   111070084.325 0                  20807167.273    86387846.676 0
                                                
 20  3 17  6 31  5.0000000  0 12G10G13G15G16G20G21G29R 5R 7R13R21R22
  23220444.940   122024253.732 0                  23220447.683    95083812.520 0
  23220448.103                                  
  23315589.496   122524243.182 0                                  95473445.900 0
  23315589.204                                  
  21779138.406   114450132.577 0                  21779138.452    89181921.132 0
  21779138.372                                  
  23122595.367   121510068.072 0                                  94683151.317 0
  23122595.005                                  
  20812360.364   109369698.173 0                                  85223122.692 0
  20812360.025                                  
  21259421.180   111718996.881 0                                  87053766.485 0
  21259419.981                                  
  21190671.635   111357750.519 0                  21190671.858    86772257.062 0
  21190671.818                                  
  23986554.732   128221878.850 0                  23986555.207    99728127.264 0
                                                
  20166849.680   107954714.254 0                  20166850.300    83964774.621 0
                                                
  23716856.782   126646660.399 0                  23716858.019    98502947.300 0
                                                
  20096356.875   107539675.085 0                  20096357.073    83641969.092 0
                                                
  20805015.138   111058597.200 0                  20805015.347    86378912.245 0
                                                
 20  3 17  6 31 10.0000000  0 12G10G13G15G16G20G21G29R 5R 7R13R21R22
  23217558.902   122009087.496 0                  23217561.645    95071994.673 0
  23217562.065                                  
  23315824.940   122525480.449 0                                  95474410.004 0
  23315824.648                                  
  21778392.388   114446212.226 0                  21778392.434    89178866.313 0
  21778392.354                                  
  23121641.172   121505053.741 0                                  94679244.046 0
  23121640.810                                  
  20810679.502   109360865.182 0                                  85216239.842 0
  20810679.162                                  
  21259119.605   111717412.096 0                                  87052531.588 0
  21259118.406                                  
  21192637.889   111368083.258 0                  21192638.113    86780308.547 0
  21192638.073                                  
  23990448.676   128242694.215 0                  23990449.152    99744316.992 0
                                                
  20164216.069   107940616.328 0                  20164216.689    83953809.567 0
                                                
  23716795.246   126646331.801 0                  23716796.483    98502691.724 0
                                                
  20097003.088   107543133.103 0                  20097003.286    83644658.661 0
                                                
  20802863.986   111047114.203 0                  20802864.195    86369981.025 0
                                                
 20  3 17  6 31 15.0000000  0 12G10G13G15G16G20G21G29R 5R 7R13R21R22
  23214674.177   121993928.168 0                  23214676.921    95060182.211 0
  23214677.341                                  
  23316063.461   122526733.888 0                                  95475386.710 0
  23316063.169                                  
  21777649.554   114442308.607 0                  21777649.600    89175824.532 0
  21777649.520                                  
  23120690.036   121500055.486 0                                  94675349.302 0
  23120689.673                                  
  20809000.759   109352043.332 0                                  85209365.673 0
  20809000.420                                  
  21258818.712   111715830.891 0                                  87051299.480 0
  21258817.513                                  
  21194606.400   111378427.849 0                  21194606.623    86788369.267 0
  21194606.583                                  
  23994343.602   128263514.826 0                  23994344.078    99760510.800 0
                                                
  20161585.701   107926535.763 0                  20161586.321    83942858.017 0
                                                
  23716737.452   126646023.186 0                  23716738.689    98502451.690 0
                                                
  20097651.322   107546601.932 0                  20097651.520    83647356.640 0
                                                
  20800713.681   111035635.727 0                  20800713.890    86361053.322 0
                                                
 20  3 17  6 31 20.0000000  0 12G10G13G15G16G20G21G29R 5R 7R13R21R22
  23211790.707   121978775.431 0                  23211793.451    95048374.883 0
  23211793.871                                  
  23316305.011   122528003.239 0                                  95476375.814 0
  23316304.718                                  
  21776909.836   114438421.360 0                  21776909.881    89172795.509 0
  21776909.801                                  
  23119741.897   121495072.985 0                                  94671466.834 0
  23119741.535                                  
  20807324.071   109343232.277 0                                  85202499.916 0
  20807323.732                                  
  21258518.452   111714253.014 0                                  87050069.965 0
  21258517.253                                  
  21196577.089   111388783.889 0                  21196577.312    86796438.909 0
  21196577.272                                  
  23998239.426   128284340.236 0                  23998239.901    99776708.342 0
                                                
  20158958.497   107912472.134 0                  20158959.117    83931919.639 0
                                                
  23716683.310   126645734.069 0                  23716684.547    98502226.821 0
                                                
  20098301.493   107550081.130 0                  20098301.691    83650062.682 0
                                                
  20798564.142   111024161.345 0                  20798564.351    86352128.802 0
                                                
 20  3 17  6 31 25.0000000  0 12G10G13G15G16G20G21G29R 5R 7R13R21R22
  23208908.526   121963629.468 0                  23208911.270    95036572.834 0
  23208911.690                                  
  23316549.614   122529288.638 0                                  95477377.424 0
  23316549.322                                  
  21776173.252   114434550.586 0                  21776173.298    89169779.321 0
  21776173.218                                  
  23118796.789   121490106.410 0                                  94667596.775 0
  23118796.427                                  
  20805649.476   109334432.219 0                                  85195642.728 0
  20805649.137                                  
  21258218.851   111712678.600 0                                  87048843.149 0
  21258217.652                                  
  21198550.002   111399151.617 0                  21198550.225    86804517.658 0
  21198550.185                                  
  24002136.152   128305170.472 0                  24002136.628    99792909.636 0
                                                
  20156334.486   107898425.596 0                  20156335.106    83920994.554 0
                                                
  23716632.849   126645464.608 0                  23716634.086    98502017.241 0
                                                
  20098953.655   107553570.979 0                  20098953.853    83652777.009 0
                                                
  20796415.416   111012691.300 0                  20796415.625    86343207.656 0
                                                
 20  3 17  6 31 30.0000000  0 12G10G13G15G16G20G21G29R 5R 7R13R21R22
  23206027.635   121948490.225 0                  23206030.368    95024776.031 0
  23206030.808                                  
  23316797.274   122530590.033 0                                  95478391.489 0
  23316797.026                                  
  21775439.821   114430696.381 0                  21775439.847    89166776.053 0
  21775439.767                                  
  23117854.715   121485155.677 0                                  94663739.046 0
  23117854.373                                  
  20803976.958   109325643.073 0                                  85188794.041 0
  20803976.619                                  
  21257919.895   111711107.582 0                                  87047618.980 0
  21257918.716                                  
  21200525.128   111409530.904 0                  21200525.396    86812605.387 0
  21200525.356                                  
  24006033.839   128326005.965 0                  24006034.207    99809115.034 0
                                                
  20153713.657   107884396.301 0                  20153714.284    83910082.915 0
                                                
  23716586.054   126645214.635 0                  23716587.297    98501822.809 0
                                                
  20099607.796   107557071.356 0                  20099607.957    83655499.501 0
                                                
  20794267.451   111001225.529 0                  20794267.607    86334289.864 0
                                                
 20  3 17  6 31 35.0000000  0 12G10G13G15G16G20G21G29R 5R 7R13R21R22
  23203148.020   121933357.746 0                  23203150.753    95012984.489 0
  23203151.193                                  
  23317047.986   122531907.535 0                                  95479418.113 0
  23317047.738                                  
  21774709.548   114426858.772 0                  21774709.574    89163785.708 0
  21774709.494                                  
  23116915.663   121480220.922 0                                  94659893.783 0
  23116915.320                                  
  20802306.527   109316864.901 0                                  85181953.907 0
  20802306.189                                  
  21257621.589   111709539.971 0                                  87046397.465 0
  21257620.409                                  
  21202502.463   111419921.869 0                  21202502.731    86820702.243 0
  21202502.691                                  
  24009932.401   128346846.011 0                  24009932.769    99825323.959 0
                                                
  20151096.062   107870384.110 0                  20151096.690    83899184.545 0
                                                
  23716542.948   126644984.450 0                  23716544.191    98501643.777 0
                                                
  20100263.905   107560582.332 0                  20100264.067    83658230.260 0
                                                
  20792120.341   110989764.110 0                  20792120.497    86325375.426 0
                                                
 20  3 17  6 31 40.0000000  0 12G10G13G15G16G20G21G29R 5R 7R13R21R22
  23200269.680   121918231.966 0                  23200272.413    95001198.167 0
  23200272.853                                  
  23317301.747   122533241.057 0                                  95480457.222 0
  23317301.499                                  
  21773982.420   114423037.687 0                  21773982.446    89160808.239 0
  21773982.366                                  
  23115979.621   121475301.989 0                                  94656060.848 0
  23115979.278                                  
  20800638.179   109308097.670 0                                  85175122.299 0
  20800637.840                                  
  21257323.934   111707975.782 0                                  87045178.617 0
  21257322.754                                  
  21204481.996   111430324.385 0                  21204482.264    86828808.099 0
  21204482.224                                  
  24013831.867   128367690.894 0                  24013832.235    99841536.646 0
                                                
  20148481.660   107856389.010 0                  20148482.287    83888299.467 0
                                                
  23716503.528   126644773.947 0                  23716504.770    98501480.052 0
                                                
  20100921.995   107564103.901 0                  20100922.156    83660969.258 0
                                                
  20789974.027   110978306.937 0                  20789974.183    86316464.291 0
                                                
 20  3 17  6 31 45.0000000  0 12G10G13G15G16G20G21G29R 5R 7R13R21R22
  23197392.626   121903112.944 0                  23197395.359    94989417.111 0
  23197395.799                                  
  23317558.561   122534590.623 0                                  95481508.832 0
  23317558.313                                  
  21773258.443   114419233.164 0                  21773258.469    89157843.676 0
  21773258.389                                  
  23115046.604   121470398.954 0                                  94652240.301 0
  23115046.262                                  
  20798971.913   109299341.382 0                                  85168299.217 0
  20798971.574                                  
  21257026.924   111706414.985 0                                  87043962.411 0
  21257025.744                                  
  21206463.736   111440738.499 0                  21206464.004    86836922.994 0
  21206463.964                                  
  24017732.233   128388540.586 0                  24017732.601    99857753.073 0
                                                
  20145870.467   107842411.090 0                  20145871.094    83877427.751 0
                                                
  23716467.784   126644583.079 0                  23716469.027    98501331.599 0
                                                
  20101582.071   107567636.101 0                  20101582.232    83663716.524 0
                                                
  20787828.529   110966854.126 0                  20787828.685    86307556.550 0
                                                
 20  3 17  6 31 50.0000000  0 12G10G13G15G16G20G21G29R 5R 7R13R21R22
  23194516.855   121888000.665 0                  23194519.587    94977641.310 0
  23194520.027                                  
  23317818.430   122535956.244 0                                  95482572.952 0
  23317818.182                                  
  21772537.619   114415445.209 0                  21772537.645    89154892.023 0
  21772537.565                                  
  23114116.610   121465511.800 0                                  94648432.129 0
  23114116.267                                  
  20797307.729   109290596.039 0                                  85161484.665 0
  20797307.390                                  
  21256730.563   111704857.600 0                                  87042748.864 0
  21256729.384                                  
  21208447.685   111451164.221 0                  21208447.953    86845046.933 0
  21208447.913                                  
  24021633.495   128409395.068 0                  24021633.863    99873973.225 0
                                                
  20143262.498   107828450.428 0                  20143263.125    83866569.458 0
                                                
  23716435.699   126644411.747 0                  23716436.942    98501198.341 0
                                                
  20102244.118   107571178.851 0                  20102244.280    83666471.997 0
                                                
  20785683.845   110955405.654 0                  20785684.001    86298652.183 0
                                                
 20  3 17  6 31 55.0000000  0 12G10G13G15G16G20G21G29R 5R 7R13R21R22
  23191642.374   121872895.167 0                  23191645.107    94965870.792 0
  23191645.547                                  
  23318081.352   122537337.911 0                                  95483649.575 0
  23318081.105                                  
  21771819.952   114411673.840 0                  21771819.978    89151953.293 0
  21771819.898                                  
  23113189.648   121460640.583 0                                  94644636.375 0
  23113189.305                                  
  20795645.641   109281861.707 0                                  85154678.692 0
  20795645.302                                  
  21256434.852   111703303.627 0                                  87041537.977 0
  21256433.673                                  
  21210433.846   111461601.566 0                  21210434.114    86853179.929 0
  21210434.074                                  
  24025535.676   128430254.461 0                  24025536.044    99890197.198 0
                                                
  20140657.756   107814507.037 0                  20140658.383    83855724.599 0
                                                
  23716407.288   126644260.034 0                  23716408.531    98501080.342 0
                                                
  20102908.163   107574732.285 0                  20102908.324    83669235.779 0
                                                
  20783539.967   110943961.488 0                  20783540.123    86289751.165 0
                                                
 20  3 17  6 32  0.0000000  0 12G10G13G15G16G20G21G29R 5R 7R13R21R22
  23188769.140   121857796.452 0                  23188771.879    94954105.582 0
  23188772.299                                  
  23318347.307   122538735.646 0                                  95484738.746 0
  23318347.050                                  
  21771105.417   114407919.070 0                  21771105.414    89149027.525 0
  21771105.354                                  
  23112265.688   121455785.270 0                                  94640853.023 0
  23112265.277                                  
  20793985.612   109273138.333 0                                  85147881.275 0
  20793985.265                                  
  21256139.770   111701753.030 0                                  87040329.729 0
  21256138.587                                  
  21212422.198   111472050.423 0                  21212422.407    86861321.886 0
  21212422.367                                  
  24029438.720   128451118.469 0                  24029439.148    99906424.776 0
                                                
  20138056.215   107800580.820 0                  20138056.814    83844893.133 0
                                                
  23716382.529   126644127.754 0                  23716383.855    98500977.432 0
                                                
  20103574.185   107578296.240 0                  20103574.351    83672007.752 0
                                                
  20781396.904   110932521.674 0                  20781397.080    86280853.548 0
                                                
 20  3 17  6 32  5.0000000  0 12G10G13G15G16G20G21G29R 5R 7R13R21R22
  23185897.222   121842704.419 0                  23185899.961    94942345.556 0
  23185900.381                                  
  23318616.317   122540149.302 0                                  95485840.296 0
  23318616.060                                  
  21770394.049   114404180.806 0                  21770394.046    89146114.592 0
  21770393.986                                  
  23111344.775   121450945.843 0                                  94637082.041 0
  23111344.365                                  
  20792327.690   109264425.892 0                                  85141092.360 0
  20792327.343                                  
  21255845.342   111700205.799 0                                  87039124.094 0
  21255844.158                                  
  21214412.753   111482510.858 0                  21214412.961    86869472.874 0
  21214412.921                                  
  24033342.645   128471987.184 0                  24033343.073    99922655.999 0
                                                
  20135457.892   107786671.792 0                  20135458.491    83834075.000 0
                                                
  23716361.434   126644015.111 0                  23716362.761    98500889.821 0
                                                
  20104242.174   107581870.782 0                  20104242.339    83674787.951 0
                                                
  20779254.653   110921086.189 0                  20779254.828    86271959.282 0
                                                
 20  3 17  6 32 10.0000000  0 12G10G13G15G16G20G21G29R 5R 7R13R21R22
  23183026.610   121827619.249 0                  23183029.349    94930590.879 0
  23183029.769                                  
  23318888.390   122541579.060 0                                  95486954.393 0
  23318888.134                                  
  21769685.853   114400459.210 0                  21769685.850    89143214.647 0
  21769685.790                                  
  23110426.906   121446122.407 0                                  94633323.519 0
  23110426.495                                  
  20790671.872   109255724.510 0                                  85134312.062 0
  20790671.525                                  
  21255551.579   111698662.065 0                                  87037921.184 0
  21255550.396                                  
  21216405.529   111492982.969 0                  21216405.738    86877632.960 0
  21216405.698                                  
  24037247.483   128492860.780 0                  24037247.911    99938891.019 0
                                                
  20132862.807   107772780.101 0                  20132863.406    83823270.351 0
                                                
  23716344.033   126643922.185 0                  23716345.359    98500817.546 0
                                                
  20104912.178   107585456.109 0                  20104912.343    83677576.539 0
                                                
  20777113.233   110909655.143 0                  20777113.408    86263068.469 0
                                                
 20  3 17  6 32 15.0000000  0 12G10G13G15G16G20G21G29R 5R 7R13R21R22
  23180157.264   121812540.739 0                  23180160.003    94918841.390 0
  23180160.423                                  
  23319163.501   122543024.774 0                                  95488080.923 0
  23319163.244                                  
  21768980.793   114396754.098 0                  21768980.791    89140327.547 0
  21768980.731                                  
  23109512.046   121441314.785 0                                  94629577.320 0
  23109511.635                                  
  20789018.121   109247033.990 0                                  85127540.228 0
  20789017.774                                  
  21255258.444   111697121.629 0                                  87036720.844 0
  21255257.260                                  
  21218400.489   111503466.552 0                  21218400.697    86885801.986 0
  21218400.657                                  
  24041153.168   128513738.908 0                  24041153.596    99955129.562 0
                                                
  20130270.916   107758905.503 0                  20130271.514    83812478.997 0
                                                
  23716330.287   126643848.783 0                  23716331.613    98500760.455 0
                                                
  20105584.139   107589051.907 0                  20105584.304    83680373.270 0
                                                
  20774972.616   110898228.386 0                  20774972.792    86254180.991 0
                                                
 20  3 17  6 32 20.0000000  0 12G10G13G15G16G20G21G29R 5R 7R13R21R22
  23177289.242   121797469.177 0                  23177291.981    94907097.316 0
  23177292.401                                  
  23319441.693   122544486.686 0                                  95489220.075 0
  23319441.437                                  
  21768278.912   114393065.688 0                  21768278.910    89137453.461 0
  21768278.850                                  
  23108600.240   121436523.212 0                                  94625843.628 0
  23108599.829                                  
  20787366.483   109238354.575 0                                  85120777.048 0
  20787366.136                                  
  21254965.984   111695584.743 0                                  87035523.271 0
  21254964.801                                  
  21220397.675   111513961.836 0                  21220397.883    86893980.129 0
  21220397.843                                  
  24045059.766   128534621.913 0                  24045060.194    99971371.899 0
                                                
  20127682.298   107745048.430 0                  20127682.897    83801701.274 0
                                                
  23716320.252   126643795.199 0                  23716321.579    98500718.778 0
                                                
  20106258.127   107592658.556 0                  20106258.293    83683178.442 0
                                                
  20772832.842   110886806.129 0                  20772833.018    86245297.013 0
                                                
 20  3 17  6 32 25.0000000  0 12G10G13G15G16G20G21G29R 5R 7R13R21R22
  23174422.498   121782404.339 0                  23174425.237    94895358.481 0
  23174425.657                                  
  23319722.922   122545964.555 0                                  95490371.662 0
  23319722.666                                  
  21767580.170   114389393.775 0                  21767580.168    89134592.230 0
  21767580.108                                  
  23107691.449   121431747.483 0                                  94622122.280 0
  23107691.038                                  
  20785716.915   109229686.037 0                                  85114022.343 0
  20785716.568                                  
  21254674.162   111694051.207 0                                  87034328.308 0
  21254672.979                                  
  21222397.055   111524468.648 0                  21222397.263    86902167.256 0
  21222397.223                                  
  24048967.238   128555509.585 0                  24048967.666    99987617.867 0
                                                
  20125096.881   107731208.489 0                  20125097.480    83790936.876 0
                                                
  23716313.852   126643761.025 0                  23716315.179    98500692.199 0
                                                
  20106934.074   107596275.686 0                  20106934.240    83685991.765 0
                                                
  20770693.895   110875388.285 0                  20770694.071    86236416.468 0
                                                
 20  3 17  6 32 30.0000000  0 12G10G13G15G16G20G21G29R 5R 7R13R21R22
  23171557.037   121767346.376 0                  23171559.688    94883625.038 0
  23171560.108                                  
  23320007.203   122547458.533 0                                  95491535.819 0
  23320006.922                                  
  21766884.585   114385738.522 0                  21766884.638    89131744.000 0
  21766884.578                                  
  23106785.694   121426987.679 0                                  94618413.336 0
  23106785.219                                  
  20784069.419   109221028.530 0                                  85107276.269 0
  20784069.084                                  
  21254382.982   111692521.115 0                                  87033136.045 0
  21254381.774                                  
  21224398.639   111534986.974 0                  21224398.851    86910363.329 0
  21224398.811                                  
  24052875.551   128576401.893 0                  24052875.990   100003867.507 0
                                                
  20122514.698   107717385.920 0                  20122515.294    83780186.036 0
                                                
  23716311.125   126643746.533 0                  23716312.360    98500680.982 0
                                                
  20107612.014   107599903.471 0                  20107612.139    83688813.399 0
                                                
  20768555.760   110863974.722 0                  20768555.912    86227539.283 0
                                                
 20  3 17  6 32 35.0000000  0 12G10G13G15G16G20G21G29R 5R 7R13R21R22
  23168692.885   121752295.152 0                  23168695.535    94871896.811 0
  23168695.955                                  
  23320294.536   122548968.478 0                                  95492712.400 0
  23320294.255                                  
  21766192.169   114382099.854 0                  21766192.222    89128908.673 0
  21766192.162                                  
  23105882.965   121422243.803 0                                  94614716.809 0
  23105882.490                                  
  20782424.026   109212381.929 0                                  85100538.658 0
  20782423.690                                  
  21254092.462   111690994.417 0                                  87031946.411 0
  21254091.254                                  
  21226402.416   111545516.895 0                  21226402.629    86918568.462 0
  21226402.589                                  
  24056784.754   128597298.826 0                  24056785.194   100020120.677 0
                                                
  20119935.756   107703580.641 0                  20119936.351    83769448.596 0
                                                
  23716312.069   126643751.576 0                  23716313.304    98500684.904 0
                                                
  20108291.941   107603541.901 0                  20108292.067    83691643.289 0
                                                
  20766418.423   110852565.475 0                  20766418.576    86218665.425 0
                                                
 20  3 17  6 32 40.0000000  0 12G10G13G15G16G20G21G29R 5R 7R13R21R22
  23165830.029   121737250.745 0                  23165832.680    94860173.896 0
  23165833.100                                  
  23320584.910   122550494.404 0                                  95493901.433 0
  23320584.629                                  
  21765502.913   114378477.785 0                  21765502.965    89126086.282 0
  21765502.905                                  
  23104983.274   121417515.896 0                                  94611032.725 0
  23104982.799                                  
  20780780.722   109203746.306 0                                  85093809.601 0
  20780780.386                                  
  21253802.590   111689471.135 0                                  87030759.437 0
  21253801.383                                  
  21228408.395   111556058.386 0                  21228408.608    86926782.611 0
  21228408.568                                  
  24060694.811   128618200.321 0                  24060695.251   100036377.395 0
                                                
  20117360.060   107689792.739 0                  20117360.656    83758724.673 0
                                                
  23716316.676   126643776.180 0                  23716317.912    98500704.040 0
                                                
  20108973.867   107607191.021 0                  20108973.992    83694481.494 0
                                                
  20764281.945   110841160.809 0                  20764282.097    86209795.128 0
                                                
 20  3 17  6 32 45.0000000  0 12G10G13G15G16G20G21G29R 5R 7R13R21R22
  23162968.466   121722213.128 0                  23162971.116    94848456.273 0
  23162971.536                                  
  23320878.338   122552036.377 0                                  95495102.970 0
  23320878.057                                  
  21764816.820   114374872.344 0                  21764816.873    89123276.848 0
  21764816.813                                  
  23104086.613   121412803.908 0                                  94607361.047 0
  23104086.137                                  
  20779139.500   109195121.630 0                                  85087089.075 0
  20779139.164                                  
  21253513.363   111687951.235 0                                  87029575.100 0
  21253512.155                                  
  21230416.567   111566611.401 0                  21230416.780    86935005.739 0
  21230416.740                                  
  24064605.744   128639106.498 0                  24064606.184   100052637.756 0
                                                
  20114787.575   107676022.027 0                  20114788.171    83748014.119 0
                                                
  23716324.953   126643820.375 0                  23716326.188    98500738.414 0
                                                
  20109657.799   107610850.879 0                  20109657.924    83697328.050 0
                                                
  20762146.292   110829760.549 0                  20762146.445    86200928.260 0
                                                
 20  3 17  6 32 50.0000000  0 12G10G13G15G16G20G21G29R 5R 7R13R21R22
  23160108.200   121707182.330 0                  23160110.851    94836743.963 0
  23160111.271                                  
  23321174.819   122553594.395 0                                  95496317.011 0
  23321174.538                                  
  21764133.889   114371283.515 0                  21764133.941    89120480.358 0
  21764133.881                                  
  23103192.981   121408107.844 0                                  94603701.776 0
  23103192.506                                  
  20777500.367   109186507.925 0                                  85080377.097 0
  20777500.031                                  
  21253224.782   111686434.729 0                                  87028393.407 0
  21253223.574                                  
  21232426.933   111577175.947 0                  21232427.146    86943237.853 0
  21232427.106                                  
  24068517.538   128660017.277 0                  24068517.977   100068901.694 0
                                                
  20112218.354   107662268.785 0                  20112218.950    83737317.153 0
                                                
  23716336.887   126643884.103 0                  23716338.122    98500787.981 0
                                                
  20110343.722   107614521.396 0                  20110343.848    83700182.896 0
                                                
  20760011.469   110818364.716 0                  20760011.621    86192064.834 0
                                                
 20  3 17  6 32 55.0000000  0 12G10G13G15G16G20G21G29R 5R 7R13R21R22
  23157249.259   121692158.493 0                  23157251.909    94825037.077 0
  23157252.329                                  
  23321474.379   122555168.598 0                                  95497543.662 0
  23321474.099                                  
  21763454.128   114367711.348 0                  21763454.181    89117696.851 0
  21763454.121                                  
  23102302.409   121403427.853 0                                  94600055.030 0
  23102301.933                                  
  20775863.351   109177905.351 0                                  85073673.792 0
  20775863.015                                  
  21252936.874   111684921.764 0                                  87027214.473 0
  21252935.666                                  
  21234439.527   111587752.199 0                  21234439.740    86951479.088 0
  21234439.700                                  
  24072430.171   128680932.543 0                  24072430.610   100085169.124 0
                                                
  20109652.359   107648532.813 0                  20109652.955    83726633.619 0
                                                
  23716352.471   126643967.320 0                  23716353.706    98500852.705 0
                                                
  20111031.615   107618202.448 0                  20111031.741    83703045.937 0
                                                
  20757877.472   110806973.298 0                  20757877.625    86183204.842 0
                                                
 20  3 17  6 33  0.0000000  0 12G10G13G15G16G20G21G29R 5R 7R13R21R22
  23154391.593   121677141.507 0                  23154394.275    94813335.558 0
  23154394.695                                  
  23321776.978   122556758.825 0                                  95498782.808 0
  23321776.673                                  
  21762777.541   114364155.824 0                  21762777.590    89114926.330 0
  21762777.510                                  
  23101414.865   121398763.818 0                                  94596420.728 0
  23101414.421                                  
  20774228.399   109169313.758 0                                  85066979.064 0
  20774228.094                                  
  21252649.621   111683412.238 0                                  87026038.211 0
  21252648.433                                  
  21236454.309   111598339.955 0                  21236454.521    86959729.281 0
  21236454.481                                  
  24076343.660   128701852.442 0                  24076344.096   100101440.179 0
                                                
  20107089.643   107634814.355 0                  20107090.194    83715963.726 0
                                                
  23716371.744   126644070.109 0                  23716373.001    98500932.655 0
                                                
  20111721.516   107621894.246 0                  20111721.662    83705917.344 0
                                                
  20755744.297   110795586.329 0                  20755744.505    86174348.327 0
                                                
 20  3 17  6 33  5.0000000  0 12G10G13G15G16G20G21G29R 5R 7R13R21R22
  23151535.243   121662131.285 0                  23151537.925    94801639.281 0
  23151538.345                                  
  23322082.632   122558365.052 0                                  95500034.413 0
  23322082.328                                  
  21762104.108   114360616.912 0                  21762104.157    89112168.736 0
  21762104.077                                  
  23100530.348   121394115.648 0                                  94592798.777 0
  23100529.904                                  
  20772595.545   109160733.052 0                                  85060292.799 0
  20772595.240                                  
  21252363.011   111681906.093 0                                  87024864.592 0
  21252361.823                                  
  21238471.276   111608939.187 0                  21238471.488    86967988.423 0
  21238471.448                                  
  24080258.020   128722776.941 0                  24080258.457   100117714.789 0
                                                
  20104530.186   107621113.384 0                  20104530.737    83705307.415 0
                                                
  23716394.677   126644192.570 0                  23716395.934    98501027.902 0
                                                
  20112413.421   107625596.770 0                  20112413.567    83708797.084 0
                                                
  20753611.993   110784203.949 0                  20753612.202    86165495.365 0
                                                
 20  3 17  6 33 10.0000000  0 12G10G13G15G16G20G21G29R 5R 7R13R21R22
  23148680.195   121647127.906 0                  23148682.876    94789948.337 0
  23148683.296                                  
  23322391.339   122559987.317 0                                  95501298.516 0
  23322391.035                                  
  21761433.850   114357094.679 0                  21761433.898    89109424.139 0
  21761433.818                                  
  23099648.867   121389483.435 0                                  94589189.261 0
  23099648.423                                  
  20770964.782   109152163.335 0                                  85053615.098 0
  20770964.477                                  
  21252077.043   111680403.322 0                                  87023693.601 0
  21252075.855                                  
  21240490.436   111619549.946 0                  21240490.649    86976256.547 0
  21240490.609                                  
  24084173.210   128743705.875 0                  24084173.646   100133992.848 0
                                                
  20101973.958   107607429.692 0                  20101974.509    83694664.544 0
                                                
  23716421.286   126644334.660 0                  23716422.543    98501138.416 0
                                                
  20113107.320   107629309.962 0                  20113107.465    83711685.122 0
                                                
  20751480.506   110772825.926 0                  20751480.715    86156645.792 0
                                                
 20  3 17  6 33 15.0000000  0 12G10G13G15G16G20G21G29R 5R 7R13R21R22
  23145826.444   121632131.345 0                  23145829.126    94778262.705 0
  23145829.546                                  
  23322703.093   122561625.592 0                                  95502575.094 0
  23322702.788                                  
  21760766.758   114353589.089 0                  21760766.807    89106692.511 0
  21760766.727                                  
  23098770.422   121384867.173 0                                  94585592.173 0
  23098769.978                                  
  20769336.094   109143604.526 0                                  85046945.896 0
  20769335.790                                  
  21251791.717   111678903.925 0                                  87022525.240 0
  21251790.530                                  
  21242511.777   111630172.165 0                  21242511.990    86984533.600 0
  21242511.950                                  
  24088089.206   128764639.119 0                  24088089.643   100150274.261 0
                                                
  20099420.970   107593763.349 0                  20099421.521    83684035.165 0
                                                
  23716451.566   126644496.353 0                  23716452.823    98501264.178 0
                                                
  20113803.189   107633033.700 0                  20113803.335    83714581.363 0
                                                
  20749349.849   110761452.332 0                  20749350.057    86147799.664 0
                                                
 20  3 17  6 33 20.0000000  0 12G10G13G15G16G20G21G29R 5R 7R13R21R22
  23142974.008   121617141.692 0                  23142976.690    94766582.456 0
  23142977.110                                  
  23323017.914   122563279.991 0                                  95503864.236 0
  23323017.610                                  
  21760102.849   114350100.223 0                  21760102.898    89103973.913 0
  21760102.818                                  
  23097895.020   121380266.906 0                                  94582007.550 0
  23097894.576                                  
  20767709.513   109135056.784 0                                  85040285.318 0
  20767709.209                                  
  21251507.046   111677407.966 0                                  87021359.557 0
  21251505.858                                  
  21244535.328   111640805.997 0                  21244535.541    86992819.703 0
  21244535.501                                  
  24092006.090   128785577.105 0                  24092006.526   100166559.361 0
                                                
  20096871.261   107580114.560 0                  20096871.812    83673419.440 0
                                                
  23716485.512   126644677.625 0                  23716486.769    98501405.167 0
                                                
  20114501.092   107636768.320 0                  20114501.238    83717486.068 0
                                                
  20747220.043   110750083.285 0                  20747220.252    86138957.071 0
                                                
 20  3 17  6 33 25.0000000  0 12G10G13G15G16G20G21G29R 5R 7R13R21R22
  23140122.886   121602158.943 0                  23140125.567    94754907.586 0
  23140125.987                                  
  23323335.799   122564950.485 0                                  95505165.920 0
  23323335.494                                  
  21759442.127   114346628.106 0                  21759442.176    89101268.368 0
  21759442.096                                  
  23097022.673   121375682.690 0                                  94578435.434 0
  23097022.229                                  
  20766085.035   109126520.091 0                                  85033633.349 0
  20766084.730                                  
  21251223.028   111675915.443 0                                  87020196.553 0
  21251221.840                                  
  21246561.077   111651451.376 0                  21246561.289    87001114.804 0
  21246561.249                                  
  24095923.793   128806519.475 0                  24095924.229   100182847.871 0
                                                
  20094324.837   107566483.349 0                  20094325.388    83662817.388 0
                                                
  23716523.109   126644878.388 0                  23716524.365    98501561.316 0
                                                
  20115200.994   107640513.637 0                  20115201.140    83720399.092 0
                                                
  20745091.087   110738718.772 0                  20745091.295    86130118.005 0
                                                
 20  3 17  6 33 30.0000000  0 12G10G13G15G16G20G21G29R 5R 7R13R21R22
  23137273.062   121587183.082 0                  23137275.740    94743238.100 0
  23137276.180                                  
  23323656.735   122566637.016 0                                  95506480.108 0
  23323656.430                                  
  21758784.580   114343172.671 0                  21758784.608    89098575.821 0
  21758784.528                                  
  23096153.356   121371114.474 0                                  94574875.787 0
  23096152.928                                  
  20764462.659   109117994.344 0                                  85026989.910 0
  20764462.314                                  
  21250939.659   111674426.335 0                                  87019036.210 0
  21250938.471                                  
  21248589.022   111662108.229 0                  21248589.239    87009418.826 0
  21248589.199                                  
  24099842.275   128827466.619 0                  24099842.695   100199140.249 0
                                                
  20091781.663   107552869.540 0                  20091782.214    83652228.861 0
                                                
  23716564.355   126645098.508 0                  23716565.620    98501732.461 0
                                                
  20115902.921   107644269.653 0                  20115903.076    83723320.403 0
                                                
  20742962.993   110727358.758 0                  20742963.201    86121282.424 0
                                                
 20  3 17  6 33 35.0000000  0 12G10G13G15G16G20G21G29R 5R 7R13R21R22
  23134424.551   121572214.054 0                  23134427.229    94731573.922 0
  23134427.669                                  
  23323980.723   122568339.585 0                                  95507806.785 0
  23323980.418                                  
  21758130.198   114339733.872 0                  21758130.227    89095896.238 0
  21758130.147                                  
  23095287.080   121366562.161 0                                  94571328.530 0
  23095286.651                                  
  20762842.358   109109479.606 0                                  85020355.049 0
  20762842.013                                  
  21250656.936   111672940.615 0                                  87017878.506 0
  21250655.748                                  
  21250619.147   111672776.606 0                  21250619.364    87017731.847 0
  21250619.324                                  
  24103761.643   128848417.883 0                  24103762.062   100215435.676 0
                                                
  20089241.765   107539273.272 0                  20089242.317    83641653.986 0
                                                
  23716609.225   126645338.113 0                  23716610.491    98501918.821 0
                                                
  20116606.812   107648036.313 0                  20116606.966    83726250.027 0
                                                
  20740835.730   110716003.287 0                  20740835.938    86112450.390 0
                                                
 20  3 17  6 33 40.0000000  0 12G10G13G15G16G20G21G29R 5R 7R13R21R22
  23131577.347   121557251.896 0                  23131580.025    94719915.098 0
  23131580.465                                  
  23324307.766   122570058.209 0                                  95509145.973 0
  23324307.462                                  
  21757478.993   114336311.768 0                  21757479.022    89093229.663 0
  21757478.942                                  
  23094423.842   121362025.815 0                                  94567793.715 0
  23094423.413                                  
  20761224.149   109100975.859 0                                  85013728.753 0
  20761223.804                                  
  21250374.861   111671458.302 0                                  87016723.457 0
  21250373.673                                  
  21252651.459   111683456.476 0                  21252651.676    87026053.824 0
  21252651.636                                  
  24107681.846   128869373.616 0                  24107682.265   100231734.580 0
                                                
  20086705.136   107525694.496 0                  20086705.687    83631092.716 0
                                                
  23716657.782   126645597.403 0                  23716659.047    98502120.491 0
                                                
  20117312.720   107651813.769 0                  20117312.874    83729188.049 0
                                                
  20738709.314   110704652.334 0                  20738709.522    86103621.871 0
                                                
 20  3 17  6 33 45.0000000  0 12G10G13G15G16G20G21G29R 5R 7R13R21R22
  23128731.461   121542296.666 0                  23128734.139    94708261.672 0
  23128734.579                                  
  23324637.865   122571792.889 0                                  95510497.671 0
  23324637.560                                  
  21756830.971   114332906.386 0                  21756830.999    89090576.119 0
  21756830.919                                  
  23093563.651   121357505.480 0                                  94564271.376 0
  23093563.222                                  
  20759608.035   109092483.126 0                                  85007111.039 0
  20759607.691                                  
  21250093.441   111669979.428 0                                  87015571.087 0
  21250092.253                                  
  21254685.969   111694147.899 0                  21254686.186    87034384.803 0
  21254686.146                                  
  24111602.858   128890333.672 0                  24111603.277   100248036.846 0
                                                
  20084171.763   107512133.150 0                  20084172.314    83620545.003 0
                                                
  23716710.026   126645876.383 0                  23716711.291    98502337.475 0
                                                
  20118020.629   107655601.932 0                  20118020.783    83732134.397 0
                                                
  20736583.755   110693305.952 0                  20736583.963    86094796.908 0
                                                
 20  3 17  6 33 50.0000000  0 12G10G13G15G16G20G21G29R 5R 7R13R21R22
  23125886.889   121527348.339 0                  23125889.567    94696613.625 0
  23125890.007                                  
  23324971.015   122573543.603 0                                  95511861.864 0
  23324970.710                                  
  21756186.129   114329517.720 0                  21756186.158    89087935.600 0
  21756186.078                                  
  23092706.493   121353001.087 0                                  94560761.459 0
  23092706.065                                  
  20757994.018   109084001.409 0                                  85000501.909 0
  20757993.674                                  
  21249812.659   111668503.908 0                                  87014421.332 0
  21249811.471                                  
  21256722.668   111704850.828 0                  21256722.885    87042724.748 0
  21256722.845                                  
  24115524.692   128911298.121 0                  24115525.111   100264342.528 0
                                                
  20081641.674   107498589.389 0                  20081642.225    83610010.966 0
                                                
  23716765.903   126646174.762 0                  23716767.168    98502569.548 0
                                                
  20118730.547   107659400.849 0                  20118730.701    83735089.110 0
                                                
  20734459.023   110681963.989 0                  20734459.231    86085975.381 0
                                                
 20  3 17  6 33 55.0000000  0 12G10G13G15G16G20G21G29R 5R 7R13R21R22
  23123043.632   121512406.921 0                  23123046.310    94684970.961 0
  23123046.750                                  
  23325307.218   122575310.363 0                                  95513238.560 0
  23325306.913                                  
  21755544.464   114326145.746 0                  21755544.492    89085308.087 0
  21755544.412                                  
  23091852.380   121348512.690 0                                  94557264.007 0
  23091851.951                                  
  20756382.092   109075530.678 0                                  84993901.339 0
  20756381.747                                  
  21249532.529   111667031.817 0                                  87013274.248 0
  21249531.341                                  
  21258761.555   111715565.250 0                  21258761.772    87051073.648 0
  21258761.732                                  
  24119447.352   128932266.986 0                  24119447.771   100280651.646 0
                                                
  20079114.845   107485063.075 0                  20079115.396    83599490.500 0
                                                
  23716825.456   126646492.771 0                  23716826.721    98502816.889 0
                                                
  20119442.476   107663210.525 0                  20119442.630    83738052.192 0
                                                
  20732335.175   110670626.744 0                  20732335.383    86077157.524 0
                                                
 20  3 17  6 34  0.0000000  0 12G10G13G15G16G20G21G29R 5R 7R13R21R22
  23120201.664   121497472.295 0                  23120204.400    94673333.608 0
  23120204.820                                  
  23325646.455   122577093.067 0                                  95514627.696 0
  23325646.130                                  
  21754905.941   114322790.392 0                  21754905.970    89082693.542 0
  21754905.890                                  
  23091001.311   121344040.122 0                                  94553778.876 0
  23091000.900                                  
  20754772.242   109067070.862 0                                  84987309.300 0
  20754771.878                                  
  21249253.042   111665563.025 0                                  87012129.740 0
  21249251.878                                  
  21260802.645   111726291.009 0                  21260802.870    87059431.372 0
  21260802.830                                  
  24123370.847   128953240.192 0                  24123371.268   100296964.159 0
                                                
  20076591.333   107471554.429 0                  20076591.929    83588983.770 0
                                                
  23716888.722   126646830.123 0                  23716890.036    98503079.169 0
                                                
  20120156.438   107667030.857 0                  20120156.606    83741023.530 0
                                                
  20730212.210   110659293.991 0                  20730212.391    86068343.137 0
                                                
 20  3 17  6 34  5.0000000  0 12G10G13G15G16G20G21G29R 5R 7R13R21R22
  23117361.060   121482544.819 0                  23117363.795    94661701.809 0
  23117364.215                                  
  23325988.772   122578891.953 0                                  95516029.426 0
  23325988.447                                  
  21754270.667   114319452.007 0                  21754270.696    89080092.204 0
  21754270.616                                  
  23090153.304   121339583.814 0                                  94550306.428 0
  23090152.893                                  
  20753164.528   109058622.268 0                                  84980725.980 0
  20753164.164                                  
  21248974.241   111664097.919 0                                  87010988.099 0
  21248973.077                                  
  21262845.931   111737028.550 0                  21262846.157    87067798.288 0
  21262846.117                                  
  24127295.102   128974217.583 0                  24127295.523   100313279.907 0
                                                
  20074071.061   107458063.213 0                  20074071.657    83578490.601 0
                                                
  23716955.543   126647186.946 0                  23716956.857    98503356.697 0
                                                
  20120872.343   107670861.811 0                  20120872.511    83744003.161 0
                                                
  20728090.042   110647965.717 0                  20728090.224    86059532.257 0
                                                
 20  3 17  6 34 10.0000000  0 12G10G13G15G16G20G21G29R 5R 7R13R21R22
  23114521.760   121467624.197 0                  23114524.495    94650075.350 0
  23114524.915                                  
  23326334.126   122580706.803 0                                  95517443.594 0
  23326333.801                                  
  21753638.556   114316130.237 0                  21753638.584    89077503.811 0
  21753638.504                                  
  23089308.322   121335143.406 0                                  94546846.370 0
  23089307.911                                  
  20751558.892   109050184.593 0                                  84974151.168 0
  20751558.528                                  
  21248696.077   111662636.158 0                                  87009849.065 0
  21248694.914                                  
  21264891.382   111747777.468 0                  21264891.608    87076174.068 0
  21264891.568                                  
  24131220.176   128995199.350 0                  24131220.596   100329599.059 0
                                                
  20071554.091   107444589.678 0                  20071554.687    83568011.185 0
                                                
  23717026.049   126647563.441 0                  23717027.363    98503649.527 0
                                                
  20121590.284   107674703.659 0                  20121590.452    83746991.265 0
                                                
  20725968.742   110636642.071 0                  20725968.924    86050724.977 0
                                                
 20  3 17  6 34 15.0000000  0 12G10G13G15G16G20G21G29R 5R 7R13R21R22
  23111683.771   121452710.467 0                  23111686.507    94638454.262 0
  23111686.927                                  
  23326682.547   122582537.764 0                                  95518870.317 0
  23326682.222                                  
  21753009.626   114312825.191 0                  21753009.655    89074928.451 0
  21753009.575                                  
  23088466.380   121330718.966 0                                  94543398.755 0
  23088465.968                                  
  20749955.346   109041757.902 0                                  84967584.915 0
  20749954.982                                  
  21248418.558   111661177.785 0                                  87008712.670 0
  21248417.394                                  
  21266939.017   111758537.861 0                  21266939.242    87084558.790 0
  21266939.202                                  
  24135146.056   129016185.432 0                  24135146.477   100345921.567 0
                                                
  20069040.415   107431133.774 0                  20069041.012    83557545.482 0
                                                
  23717100.232   126647959.575 0                  23717101.546    98503957.631 0
                                                
  20122310.246   107678556.319 0                  20122310.414    83749987.778 0
                                                
  20723848.308   110625323.051 0                  20723848.490    86041921.295 0
                                                
 20  3 17  6 34 20.0000000  0 12G10G13G15G16G20G21G29R 5R 7R13R21R22
  23108847.112   121437803.719 0                  23108849.847    94626838.614 0
  23108850.267                                  
  23327034.035   122584384.848 0                                  95520309.604 0
  23327033.710                                  
  21752383.889   114309536.919 0                  21752383.918    89072366.161 0
  21752383.838                                  
  23087627.486   121326310.549 0                                  94539963.625 0
  23087627.074                                  
  20748353.903   109033342.259 0                                  84961027.271 0
  20748353.538                                  
  21248141.692   111659722.843 0                                  87007578.949 0
  21248140.528                                  
  21268988.845   111769309.781 0                  21268989.071    87092952.493 0
  21268989.031                                  
  24139072.749   129037175.855 0                  24139073.169   100362247.452 0
                                                
  20066530.031   107417695.494 0                  20066530.628    83547093.487 0
                                                
  23717178.058   126648375.162 0                  23717179.372    98504280.865 0
                                                
  20123032.223   107682419.766 0                  20123032.391    83752992.681 0
                                                
  20721728.741   110614008.656 0                  20721728.922    86033121.210 0
                                                
 20  3 17  6 34 25.0000000  0 12G10G13G15G16G20G21G29R 5R 7R13R21R22
  23106011.763   121422903.864 0                  23106014.499    94615228.337 0
  23106014.919                                  
  23327388.571   122586247.950 0                                  95521761.372 0
  23327388.247                                  
  21751761.324   114306265.321 0                  21751761.353    89069816.863 0
  21751761.273                                  
  23086791.631   121321918.106 0                                  94536540.942 0
  23086791.220                                  
  20746754.546   109024937.583 0                                  84954478.173 0
  20746754.181                                  
  21247865.472   111658271.299 0                                  87006447.876 0
  21247864.309                                  
  21271040.846   111780093.116 0                  21271041.071    87101355.093 0
  21271041.031                                  
  24143000.245   129058170.570 0                  24143000.665   100378576.675 0
                                                
  20064022.921   107404274.733 0                  20064023.517    83536655.117 0
                                                
  23717259.540   126648810.273 0                  23717260.854    98504619.285 0
                                                
  20123756.211   107686293.971 0                  20123756.379    83756005.952 0
                                                
  20719610.031   110602698.842 0                  20719610.213    86024324.688 0
                                                
 20  3 17  6 34 30.0000000  0 12G10G13G15G16G20G21G29R 5R 7R13R21R22
  23103177.720   121408010.899 0                  23103180.487    94603623.439 0
  23103180.907                                  
  23327746.149   122588127.033 0                                  95523225.600 0
  23327745.804                                  
  21751141.944   114303010.416 0                  21751141.908    89067280.600 0
  21751141.848                                  
  23085958.812   121317541.603 0                                  94533130.690 0
  23085958.408                                  
  20745157.258   109016543.849 0                                  84947937.610 0
  20745156.910                                  
  21247589.891   111656823.110 0                                  87005319.417 0
  21247588.747                                  
  21273095.021   111790887.811 0                  21273095.250    87109766.526 0
  21273095.210                                  
  24146928.481   129079169.416 0                  24146928.857   100394909.111 0
                                                
  20061519.107   107390871.773 0                  20061519.734    83526230.622 0
                                                
  23717344.632   126649264.871 0                  23717345.901    98504972.869 0
                                                
  20124482.205   107690178.989 0                  20124482.368    83759027.644 0
                                                
  20717492.199   110591393.809 0                  20717492.368    86015531.920 0
                                                
 20  3 17  6 34 35.0000000  0 12G10G13G15G16G20G21G29R 5R 7R13R21R22
  23100345.015   121393124.933 0                  23100347.782    94592023.985 0
  23100348.202                                  
  23328106.798   122590022.257 0                                  95524702.398 0
  23328106.454                                  
  21750525.750   114299772.299 0                  21750525.715    89064757.391 0
  21750525.655                                  
  23085129.041   121313181.126 0                                  94529732.916 0
  23085128.637                                  
  20743562.093   109008161.195 0                                  84941405.672 0
  20743561.744                                  
  21247314.971   111655378.397 0                                  87004193.667 0
  21247313.828                                  
  21275151.384   111801694.073 0                  21275151.614    87118186.990 0
  21275151.574                                  
  24150857.522   129100172.395 0                  24150857.898   100411244.761 0
                                                
  20059018.585   107377486.283 0                  20059019.213    83515819.686 0
                                                
  23717433.385   126649738.805 0                  23717434.653    98505341.485 0
                                                
  20125210.187   107694074.568 0                  20125210.350    83762057.538 0
                                                
  20715375.203   110580093.142 0                  20715375.372    86006742.513 0
                                                
 20  3 17  6 34 40.0000000  0 12G10G13G15G16G20G21G29R 5R 7R13R21R22
  23097513.651   121378246.016 0                  23097516.419    94580430.023 0
  23097516.839                                  
  23328470.520   122591933.627 0                                  95526191.777 0
  23328470.175                                  
  21749912.759   114296551.009 0                  21749912.724    89062247.295 0
  21749912.664                                  
  23084302.337   121308836.768 0                                  94526347.702 0
  23084301.933                                  
  20741969.039   108999789.640 0                                  84934882.382 0
  20741968.690                                  
  21247040.727   111653937.231 0                                  87003070.680 0
  21247039.583                                  
  21277209.947   111812511.897 0                  21277210.177    87126616.463 0
  21277210.137                                  
  24154787.399   129121179.837 0                  24154787.775   100427583.883 0
                                                
  20056521.414   107364118.729 0                  20056522.041    83505422.699 0
                                                
  23717525.844   126650232.530 0                  23717527.112    98505725.493 0
                                                
  20125940.239   107697981.221 0                  20125940.402    83765096.046 0
                                                
  20713259.127   110568797.383 0                  20713259.296    85997956.922 0
                                                
 20  3 17  6 34 45.0000000  0 12G10G13G15G16G20G21G29R 5R 7R13R21R22
  23094683.596   121363373.974 0                  23094686.363    94568841.420 0
  23094686.783                                  
  23328837.280   122593860.964 0                                  95527693.598 0
  23328836.935                                  
  21749302.948   114293346.426 0                  21749302.912    89059750.218 0
  21749302.852                                  
  23083478.663   121304508.333 0                                  94522974.896 0
  23083478.259                                  
  20740378.069   108991429.038 0                                  84928367.627 0
  20740377.720                                  
  21246767.111   111652499.372 0                                  87001950.270 0
  21246765.967                                  
  21279270.672   111823341.079 0                  21279270.902    87135054.786 0
  21279270.862                                  
  24158718.009   129142191.203 0                  24158718.385   100443926.056 0
                                                
  20054027.505   107350768.641 0                  20054028.133    83495039.297 0
                                                
  23717621.918   126650745.561 0                  23717623.187    98506124.518 0
                                                
  20126672.265   107701898.440 0                  20126672.428    83768142.772 0
                                                
  20711143.884   110557506.071 0                  20711144.053    85989174.791 0
                                                
